[{"user_id": "575601309", "location": {"coordinate": {"lat": 40.071222, "lng": -74.86488729999999}, "name": "Burlington, NJ"}, "timestamp": "1446335452", "user": "Dale Simmons", "text": "Finally Got My Flight Bomber Jacket "}, {"user_id": "324481619", "location": {"coordinate": {"lat": -7.2574719, "lng": 112.7520883}, "name": "Kota Surabaya, Jawa Timur"}, "timestamp": "1446383577", "user": "FRIDAY KILLER Store", "text": "HOXIE BLK Bomber Jacket from @FridayKillerCo  IDR.295.000 for online order 08175234384pic.twitter.com/wDSJsifIdG"}, {"user_id": "324481619", "location": {"coordinate": {"lat": -7.2574719, "lng": 112.7520883}, "name": "Kota Surabaya, Jawa Timur"}, "timestamp": "1446383601", "user": "FRIDAY KILLER Store", "text": "HOXIE NVY Bomber Jacket from @FridayKillerCo  IDR.295.000 for online order 08175234384pic.twitter.com/8fbRbdPRhq"}, {"user_id": "721289966", "location": {"coordinate": {"lat": 1.2926045, "lng": 103.7683724}, "name": "West Region, Singapore"}, "timestamp": "1446393978", "user": "????? ????", "text": "Needs & Wants :\n\u2022Tie-Dye T-shirt\n\u2022Windbreaker\n\u2022Bomber Jacket\n\u2022New pair of sneakers\n\u2022Jeans\n\u2022 Hawaiian Shirts"}, {"user_id": "2607972180", "location": {"coordinate": {"lat": 5.6037168, "lng": -0.1869644}, "name": "Accra, Ghana"}, "timestamp": "1446399312", "user": "thelifeofaslave", "text": "ID | New Collection | .\nDashiki Bomber Jacket |\nOrder Now .| Call/WhatsApp.\n(+233) 0265247307 pic.twitter.com/vtwhpySR7V"}, {"user_id": "161403599", "location": {"coordinate": {"lat": 43.653226, "lng": -79.3831843}, "name": "Toronto, Ontario"}, "timestamp": "1446401239", "user": "mimi", "text": "Someone @ me if they know where I can buy a nice long line bomber jacket... pls & thank you"}, {"user_id": "22669493", "location": {"coordinate": {"lat": 51.5123792, "lng": -0.0087975}, "name": "Poplar, London"}, "timestamp": "1446408414", "user": "Hans", "text": " King of the concrete jungle Bejewelled crown, faux-leopard quilted bomber jacket and Toy t-shirt,\u2026 https://instagram.com/p/9jhWLfvbBH/\u00a0"}, {"user_id": "1000601762", "location": {"coordinate": {"lat": 32.8406946, "lng": -83.6324022}, "name": "Macon, GA"}, "timestamp": "1446413318", "user": "AB.", "text": "I want a bomber jacket "}, {"user_id": "66620967", "location": {"coordinate": {"lat": 41.2033216, "lng": -77.1945247}, "name": "Pennsylvania, USA"}, "timestamp": "1446418200", "user": "30$hakur", "text": "Just bought like an old school  bomber jacket.. Best decision I've ever made"}, {"user_id": "90262015", "location": {"coordinate": {"lat": 39.9611755, "lng": -82.99879419999999}, "name": "Columbus, OH"}, "timestamp": "1446422374", "user": "Hillary Dixon Rust", "text": "@mbotti @GissiSim fully expected this to be a pic of my bomber jacket from 8th grade. Not disappointed. Just surprised."}, {"user_id": "444678793", "location": {"coordinate": {"lat": 39.0920531, "lng": -76.8177498}, "name": "Maryland City, MD"}, "timestamp": "1446429640", "user": "zipdajuice\u00ae", "text": "lrt i want the dreamville bomber jacket"}, {"user_id": "197290152", "location": {"coordinate": {"lat": 29.95106579999999, "lng": -90.0715323}, "name": "New Orleans, LA"}, "timestamp": "1446434466", "user": "se\u00f1or wicked", "text": "a rosary chain doesn't make you have belief in god \nand having a bomber jacket doesn't mean you have style"}, {"user_id": "2712233108", "location": {"coordinate": {"lat": 52.3670267, "lng": 6.668491899999999}, "name": "Almelo, Nederland"}, "timestamp": "1446458725", "user": "Di Lano Fashion", "text": "Nieky Holzken met de Given Camo bomber jacket NU BIJ DI Lano!\nVandaag (maandag)zijn we van 13UUR tot\u2026 https://instagram.com/p/9lBTzdI0tL/\u00a0"}, {"user_id": "2607972180", "location": {"coordinate": {"lat": 5.6037168, "lng": -0.1869644}, "name": "Accra, Ghana"}, "timestamp": "1446460930", "user": "thelifeofaslave", "text": "ID | New Collection | .\nDashiki Bomber Jacket |\nOrder Now .| Call/WhatsApp.\n(+233) 0265247307 pic.twitter.com/O6WAboM1xj"}, {"user_id": "324481619", "location": {"coordinate": {"lat": -7.195705299999999, "lng": 113.5133267}, "name": "Pademawu, Indonesia"}, "timestamp": "1446467227", "user": "FRIDAY KILLER Store", "text": "HOXIE BLK Bomber Jacket from @FridayKillerCo  IDR.295.000 for online order 08175234384pic.twitter.com/95cWBCJZRx"}, {"user_id": "324481619", "location": {"coordinate": {"lat": -7.195705299999999, "lng": 113.5133267}, "name": "Pademawu, Indonesia"}, "timestamp": "1446467247", "user": "FRIDAY KILLER Store", "text": "HOXIE NVY Bomber Jacket from @FridayKillerCo  IDR.295.000 for online order 08175234384pic.twitter.com/wREy2ICYYi"}, {"user_id": "250972754", "location": {"coordinate": {"lat": 32.7766642, "lng": -96.79698789999999}, "name": "Dallas, TX"}, "timestamp": "1446469359", "user": "BankRoll Dez ????", "text": "Yezzy Season 1 bomber jacket 2 racks.... I NEED IT"}, {"user_id": "581617687", "location": {"coordinate": {"lat": -6.890393599999999, "lng": 107.5889804}, "name": "Sukajadi, Indonesia"}, "timestamp": "1446472038", "user": "MYPRIDE FS&Co.", "text": "PRIDE GANG | BOMBER JACKET | Text & WA: 087825655111 | PIN: 54E2A0C1 LINE @MYPRIDE / myprideofficialpic.twitter.com/5x9gowtcOo"}, {"user_id": "47037465", "location": {"coordinate": {"lat": 29.0729673, "lng": -110.9559192}, "name": "Hermosillo, Sonora"}, "timestamp": "1446476823", "user": "Mr. J", "text": "Una Bomber jacket me est\u00e1 haciendo ojitos en linea. El clima ya casi lo amerita, \u00bfno?."}, {"user_id": "42769786", "location": {"coordinate": {"lat": 41.8781136, "lng": -87.6297982}, "name": "Chicago, IL"}, "timestamp": "1446493549", "user": "BLM", "text": "I want a nice army green bomber jacket"}, {"user_id": "40726576", "location": {"coordinate": {"lat": 33.7489954, "lng": -84.3879824}, "name": "Atlanta, GA"}, "timestamp": "1446499522", "user": "Middlemanfresh", "text": "Just finished the homie @mrmillync  customs bomber jacket.. @ Studio 11 https://instagram.com/p/9mPH6Ug9cW/\u00a0"}, {"user_id": "43576113", "location": {"coordinate": {"lat": 42.2625932, "lng": -71.8022934}, "name": "Worcester, MA"}, "timestamp": "1446507629", "user": "???", "text": "I need a bomber jacket and a waterfall coat !"}, {"user_id": "3184509090", "location": {"coordinate": {"lat": 34.0522342, "lng": -118.2436849}, "name": "Los Angeles, CA"}, "timestamp": "1446513927", "user": "icey mikey??", "text": "Got a bomber jacket finally "}, {"user_id": "346375937", "location": {"coordinate": {"lat": 32.76679550000001, "lng": -96.5991593}, "name": "Mesquite, TX"}, "timestamp": "1446520364", "user": "mamacita pris ?", "text": "Need a green & black bomber jacket ASAP!"}, {"user_id": "1402519627", "location": {"coordinate": {"lat": 37.0890719, "lng": -8.2478796}, "name": "Albufeira, Portugal"}, "timestamp": "1446553921", "user": "Aim\u00e8e", "text": "Walking around in 2 pairs of leggings, a long sleeved top and my bomber jacket. But, I'm in Portugal ?"}, {"user_id": "76817337", "location": {"coordinate": {"lat": 40.8567662, "lng": -74.1284764}, "name": "Passaic, NJ"}, "timestamp": "1446563435", "user": "#KAZWORLD ??", "text": "I need that red bomber jacket  https://twitter.com/anayal8ter/status/661544936811163649\u00a0\u2026"}, {"user_id": "173588816", "location": {"coordinate": {"lat": 33.7489954, "lng": -84.3879824}, "name": "Atlanta, GA"}, "timestamp": "1446566487", "user": "Samo.", "text": "About To Go Cop A Bomber Jacket From The Flea Market"}, {"user_id": "400433620", "location": {"coordinate": {"lat": 40.9114882, "lng": -73.7823549}, "name": "New Rochelle, NY"}, "timestamp": "1446569780", "user": "Migue", "text": "To save money or to buy a bomber jacket?\u00bf?"}, {"user_id": "524080302", "location": {"coordinate": {"lat": 47.1256761, "lng": -122.2930075}, "name": "South Hill, WA"}, "timestamp": "1446573162", "user": "christian 5-(3)-3", "text": "i'm getting a bomber jacket and new hoodie next paycheck"}, {"user_id": "380723148", "location": {"coordinate": {"lat": 36.778261, "lng": -119.4179324}, "name": "California, USA"}, "timestamp": "1446578733", "user": "Mr.Mrmcnuggett", "text": "My bomber jacket about to be way way better then anyone's."}, {"user_id": "470029470", "location": {"coordinate": {"lat": 26.0112014, "lng": -80.1494901}, "name": "Hollywood, FL"}, "timestamp": "1446580730", "user": "LaidBack_Matt", "text": "I want a nasa bomber jacket"}, {"user_id": "173351920", "location": {"coordinate": {"lat": 32.297853, "lng": -110.9187037}, "name": "Catalina Foothills, AZ"}, "timestamp": "1446594869", "user": "Bonnor Billigan", "text": "I need a bomber jacket so bad"}, {"user_id": "48574708", "location": {"coordinate": {"lat": 47.6062095, "lng": -122.3320708}, "name": "Seattle, WA"}, "timestamp": "1446604305", "user": "Sanda Belaire", "text": "Artfully layered lace, tulle & chiffon  creates a dramatic and dressy bomber jacket to top a dress or\u2026 https://instagram.com/p/9pW-yvFE8f/\u00a0"}, {"user_id": "90650230", "location": {"coordinate": {"lat": 14.554729, "lng": 121.0244452}, "name": "Makati City, National Capital Region"}, "timestamp": "1446604615", "user": "catherine manuel", "text": "@hauallanigue Bih bnebenta mo pa ba bomber jacket mo? Haha."}, {"user_id": "2913940193", "location": {"coordinate": {"lat": 40.7558142, "lng": -73.2912784}, "name": "Baywood, NY"}, "timestamp": "1446606361", "user": "Zeus??", "text": "I need a bomber jacket!!"}, {"user_id": "323061924", "location": {"coordinate": {"lat": 41.1200325, "lng": -87.8611531}, "name": "Kankakee, IL"}, "timestamp": "1446607622", "user": "-", "text": "NASA bomber jacket tempting.."}, {"user_id": "90650230", "location": {"coordinate": {"lat": 14.554729, "lng": 121.0244452}, "name": "Makati City, National Capital Region"}, "timestamp": "1446609257", "user": "catherine manuel", "text": "@hauallanigue speaking of kemeru wit nya knowsline bomber jacket pormahan nun sa office floral polo na formality is the key"}, {"user_id": "1563644270", "location": {"coordinate": {"lat": 37.5791158, "lng": 126.9367789}, "name": "Seodaemun-gu, Republic of Korea"}, "timestamp": "1446616514", "user": "F?", "text": "Bomber jacket is really famous these days.. https://twitter.com/MinoChoi_1209/status/661774941780467712/photo/1pic.twitter.com/suHhtuSeCq\u00a0"}, {"user_id": "1563644270", "location": {"coordinate": {"lat": 37.5791158, "lng": 126.9367789}, "name": "Seodaemun-gu, Republic of Korea"}, "timestamp": "1446616530", "user": "F?", "text": "Bomber jacket too pic.twitter.com/AxIiGwti5L"}, {"user_id": "2293478166", "location": {"coordinate": {"lat": 34.0686208, "lng": -117.9389526}, "name": "West Covina, CA"}, "timestamp": "1446617477", "user": "steph", "text": "finally was able to wear my bomber jacket today "}, {"user_id": "66589959", "location": {"coordinate": {"lat": 39.70289229999999, "lng": -75.1118422}, "name": "Glassboro, NJ"}, "timestamp": "1446622385", "user": "Luis Torres", "text": "Just want my damn bomber jacket already"}, {"user_id": "453020170", "location": {"coordinate": {"lat": 55.864237, "lng": -4.251806}, "name": "Glasgow, Scotland"}, "timestamp": "1446636768", "user": "Honeyz.Com", "text": "\" Classic Bomber Jacket\" ONLY \u00a327.99 , Online NOW!! , Black Or Khaki? You Choose\nhttp://www.honeyz.com/shop/clothing/classic-bomber-jacket/\u00a0\u2026pic.twitter.com/u4Z3sHJV2B"}, {"user_id": "324481619", "location": {"coordinate": {"lat": -7.2574719, "lng": 112.7520883}, "name": "Kota Surabaya, Jawa Timur"}, "timestamp": "1446644348", "user": "FRIDAY KILLER Store", "text": "HOXIE BLK Bomber Jacket from @FridayKillerCo  IDR.295.000 for online order 08175234384pic.twitter.com/ZGfMhoXYZF"}, {"user_id": "324481619", "location": {"coordinate": {"lat": -7.2574719, "lng": 112.7520883}, "name": "Kota Surabaya, Jawa Timur"}, "timestamp": "1446644366", "user": "FRIDAY KILLER Store", "text": "HOXIE NVY Bomber Jacket from @FridayKillerCo  IDR.295.000 for online order 08175234384pic.twitter.com/YJaPh8bQia"}, {"user_id": "38008999", "location": {"coordinate": {"lat": 21.3069444, "lng": -157.8583333}, "name": "Honolulu, HI"}, "timestamp": "1446662533", "user": "Ryan Guerrero", "text": "That Yeezy season 1 Bomber Jacket and Hoody look dope, but too expensive "}, {"user_id": "64781886", "location": {"coordinate": {"lat": 32.1656221, "lng": -82.9000751}, "name": "Georgia, USA"}, "timestamp": "1446664897", "user": "Rob ??????", "text": "My bomber jacket came in "}, {"user_id": "864599688", "location": {"coordinate": {"lat": 52.3555177, "lng": -1.1743197}, "name": "England, United Kingdom"}, "timestamp": "1446666685", "user": "Chloeschlothes", "text": "Demain sur le blog ! Le #bomber jacketpic.twitter.com/JFLyY4rkzJ"}, {"user_id": "110538028", "location": {"coordinate": {"lat": 40.7830603, "lng": -73.9712488}, "name": "Manhattan, NY"}, "timestamp": "1446667480", "user": "Fatty", "text": "this girl said \"yea I'm tryna get a bomber jacket. u know the one everyone has.\"  interesting"}, {"user_id": "242069096", "location": {"coordinate": {"lat": 52.6541454, "lng": -7.2447879}, "name": "Kilkenny, Ireland"}, "timestamp": "1446669613", "user": "Ciaran Walsh", "text": "My bomber jacket was too small if anyone's been wondering what the latest news is with Ciar\u00e1n's online menswear"}, {"user_id": "26456199", "location": {"coordinate": {"lat": 29.8774282, "lng": -90.0320153}, "name": "Timberlane, LA"}, "timestamp": "1446669717", "user": "stillmatic", "text": "@Svpply i ordered a nike bomber  jacket oct 10th and have yet to receive  it can i want my money  back oder#284"}, {"user_id": "73033200", "location": {"coordinate": {"lat": 41.8781136, "lng": -87.6297982}, "name": "Chicago, IL"}, "timestamp": "1446670598", "user": "CRAM CHICAGO", "text": "NEW ARRIVAL from #OriginalPenguin the Pieced Bomber Jacket! This reversible jacket comes in Asphalt\u2026 https://instagram.com/p/9rVbMzhziO/\u00a0"}, {"user_id": "613902507", "location": {"coordinate": {"lat": 42.1014831, "lng": -72.589811}, "name": "Springfield, MA"}, "timestamp": "1446677603", "user": "Drizz", "text": "Praying I could get that Gucci Mane bomber jacket before they sellout"}, {"user_id": "282387949", "location": {"coordinate": {"lat": 29.7604267, "lng": -95.3698028}, "name": "Houston, TX"}, "timestamp": "1446680373", "user": "D.A.D", "text": "Fuck you skinny jeans bomber jacket Chelsea boots rocking niggas y'all look like siblings"}, {"user_id": "708528918", "location": {"coordinate": {"lat": 43.653226, "lng": -79.3831843}, "name": "Toronto, Ontario"}, "timestamp": "1446682401", "user": "vampire workday", "text": "if you watch jane the virgin and are team michael please give back your bomber jacket you're excommunicated from the squad"}, {"user_id": "1242752821", "location": {"coordinate": {"lat": 43.2097837, "lng": -77.6930602}, "name": "Greece, NY"}, "timestamp": "1446688878", "user": "K$upreme", "text": "I need a black bomber jacket"}, {"user_id": "37578674", "location": {"coordinate": {"lat": 29.8832749, "lng": -97.9413941}, "name": "San Marcos, TX"}, "timestamp": "1446690377", "user": "Saint Bernard West \u00ae", "text": "Can't find that bomber jacket anywhere "}, {"user_id": "1110015714", "location": {"coordinate": {"lat": 39.9525839, "lng": -75.1652215}, "name": "Philadelphia, PA"}, "timestamp": "1446691285", "user": "#1 Filmmaker?", "text": "I really want a bomber jacket"}, {"user_id": "570500846", "location": {"coordinate": {"lat": 33.9172357, "lng": -118.0120086}, "name": "La Mirada, CA"}, "timestamp": "1446702157", "user": "jesh_larrinaga", "text": "It's official I need a bomber jacket"}, {"user_id": "453020170", "location": {"coordinate": {"lat": 55.864237, "lng": -4.251806}, "name": "Glasgow, Scotland"}, "timestamp": "1446721412", "user": "Honeyz.Com", "text": "Ladies It's a MUST!!! \" Quilted Bomber Jacket\" ONLY \u00a323.99 , Online NOW!\nhttp://www.honeyz.com/shop/clothing/quilted-bomber-jacket/\u00a0\u2026pic.twitter.com/Z2cAdiDTxl"}, {"user_id": "122459467", "location": {"coordinate": {"lat": 51.5465063, "lng": -0.1058058}, "name": "Islington, London"}, "timestamp": "1446723843", "user": "Albam Clothing", "text": "The Milano Knit Bomber Jacket. 100% wool & made in England. Online & in-store now http://www.albamclothing.com/product/19167/navy/milano-knit-bomber-jacket.asp\u00a0\u2026pic.twitter.com/VJ4eFAu2K6"}, {"user_id": "324481619", "location": {"coordinate": {"lat": -7.2574719, "lng": 112.7520883}, "name": "Kota Surabaya, Jawa Timur"}, "timestamp": "1446731574", "user": "FRIDAY KILLER Store", "text": "HOXIE BLK Bomber Jacket from @FridayKillerCo  IDR.295.000 for online order 08175234384pic.twitter.com/xSdibv6hI9"}, {"user_id": "324481619", "location": {"coordinate": {"lat": -7.2574719, "lng": 112.7520883}, "name": "Kota Surabaya, Jawa Timur"}, "timestamp": "1446731597", "user": "FRIDAY KILLER Store", "text": "HOXIE NVY Bomber Jacket from @FridayKillerCo  IDR.295.000 for online order 08175234384pic.twitter.com/WJRnannqNm"}, {"user_id": "36081911", "location": {"coordinate": {"lat": 52.48624299999999, "lng": -1.890401}, "name": "Birmingham, England"}, "timestamp": "1446734724", "user": "Neil Leedham", "text": "That bomber jacket! Fucccckk https://twitter.com/dondacreate/status/662278007596449792\u00a0\u2026"}, {"user_id": "534043418", "location": {"coordinate": {"lat": 40.7830603, "lng": -73.9712488}, "name": "Manhattan, NY"}, "timestamp": "1446735599", "user": "TAKEOVER", "text": "Originating from the streets.  @salomonfaye wearing elongated bomber jacket ready for winter. Photo\u2026 https://instagram.com/p/9tRZ0DOFII/\u00a0"}, {"user_id": "1565589362", "location": {"coordinate": {"lat": 44.647128, "lng": 10.9252269}, "name": "Modena, Emilia Romagna"}, "timestamp": "1446738466", "user": "11work", "text": "lowbrandofficial GRAIL three material black #bomber #jacket meet the #mockneck #cotton knitwear from\u2026 https://instagram.com/p/9tW3S-nzoU/\u00a0"}, {"user_id": "453020170", "location": {"coordinate": {"lat": 55.864237, "lng": -4.251806}, "name": "Glasgow, Scotland"}, "timestamp": "1446739921", "user": "Honeyz.Com", "text": "Every Girl Needs One!\nOur 'Quilted Bomber Jacket'\nOnly \u00a323.99!!\nGet Yours Today http://www.honeyz.com/shop/clothing/quilted-bomber-jacket/\u00a0\u2026\n#ShopHoneyzpic.twitter.com/Oqy5nay5nA"}, {"user_id": "398224507", "location": {"coordinate": {"lat": 34.0522342, "lng": -118.2436849}, "name": "Los Angeles, CA"}, "timestamp": "1446741700", "user": "Masato Kawajo", "text": "Bomber Jacket meet sports coat.\n#Vintage #AlohaShirts @ Griffith Observatory https://instagram.com/p/9tdCmoB6WO/\u00a0"}, {"user_id": "1601513348", "location": {"coordinate": {"lat": 54.972283, "lng": -1.52199}, "name": "Hebburn, England"}, "timestamp": "1446742875", "user": "Leah Marshall", "text": "@ASOS_HeretoHelp the bomber jacket i just bought is fraying down the sides, could you reply to my DM"}, {"user_id": "1466219694", "location": {"coordinate": {"lat": 28.2919557, "lng": -81.40757099999999}, "name": "Kissimmee, FL"}, "timestamp": "1446747694", "user": "katie-bug", "text": "scruffy red bomber jacket Scott singing Ref "}, {"user_id": "506823530", "location": {"coordinate": {"lat": 32.5896998, "lng": -96.8570738}, "name": "Desoto, TX"}, "timestamp": "1446748526", "user": "vLone $avage", "text": "A bomber jacket https://twitter.com/layerssssss/status/662337084129046528\u00a0\u2026"}, {"user_id": "2585573503", "location": {"coordinate": {"lat": 47.4017661, "lng": -122.3242902}, "name": "Des Moines, WA"}, "timestamp": "1446749034", "user": "mj", "text": "A burgundy bomber jacket and some bordeauxs....  it's a cute outfit tho"}, {"user_id": "37578674", "location": {"coordinate": {"lat": 29.8832749, "lng": -97.9413941}, "name": "San Marcos, TX"}, "timestamp": "1446749902", "user": "Saint Bernard West \u00ae", "text": "Where are thou Bomber Jacket "}, {"user_id": "30239239", "location": {"coordinate": {"lat": 34.1808392, "lng": -118.3089661}, "name": "Burbank, CA"}, "timestamp": "1446753267", "user": "Jew Papi", "text": "I need to buy a bomber jacket soon"}, {"user_id": "1145307950", "location": {"coordinate": {"lat": 52.48624299999999, "lng": -1.890401}, "name": "Birmingham, England"}, "timestamp": "1446754252", "user": "Saf", "text": "Need to find myself a nice bomber jacket"}, {"user_id": "243781055", "location": {"coordinate": {"lat": 40.81201710000001, "lng": -74.1243063}, "name": "Lyndhurst, NJ"}, "timestamp": "1446757204", "user": "Sav.", "text": "I need a bomber jacket ."}, {"user_id": "485272261", "location": {"coordinate": {"lat": 42.2570866, "lng": -72.51688589999999}, "name": "Granby, MA"}, "timestamp": "1446763939", "user": "La Mode", "text": "BLACK ANIMAL PRINT FAUX LEATHER COATED ZIP UP LONG SLEEVE BOMBER JACKET TOP http://lamodema.com/?p=9808\u00a0"}, {"user_id": "57170088", "location": {"coordinate": {"lat": 29.7604267, "lng": -95.3698028}, "name": "Houston, TX"}, "timestamp": "1446770958", "user": "IG: XavierJames713", "text": "@kane_brock rocking that Vintage 2011 HM x Versace collection Suede Bomber Jacket for Halloween\u2026 https://instagram.com/p/9uU10QHEtn/\u00a0"}, {"user_id": "139004753", "location": {"coordinate": {"lat": 29.8832749, "lng": -97.9413941}, "name": "San Marcos, TX"}, "timestamp": "1446784154", "user": "glocktalk", "text": "I'm really debating on if I should buy this bomber jacket cause Imma be mad if I don't got nowhere to wear it yo"}, {"user_id": "490307979", "location": {"coordinate": {"lat": 51.34740499999999, "lng": -2.977255}, "name": "Weston-super-Mare, England"}, "timestamp": "1446800667", "user": "Morgan Bridgewater", "text": "heading to the doctors looking a lucky 2 in a bomber jacket, pj top, trackies and boots mhmmm gurl workin it X"}, {"user_id": "324481619", "location": {"coordinate": {"lat": -7.2574719, "lng": 112.7520883}, "name": "Kota Surabaya, Jawa Timur"}, "timestamp": "1446817027", "user": "FRIDAY KILLER Store", "text": "HOXIE BLK Bomber Jacket from @FridayKillerCo  IDR.295.000 for online order 08175234384pic.twitter.com/u0Qnv49148"}, {"user_id": "324481619", "location": {"coordinate": {"lat": -7.2574719, "lng": 112.7520883}, "name": "Kota Surabaya, Jawa Timur"}, "timestamp": "1446817049", "user": "FRIDAY KILLER Store", "text": "HOXIE NVY Bomber Jacket from @FridayKillerCo  IDR.295.000 for online order 08175234384pic.twitter.com/DFW9Dhmz3Z"}, {"user_id": "904190202", "location": {"coordinate": {"lat": 51.536563, "lng": 0.075766}, "name": "Barking, London"}, "timestamp": "1446827244", "user": "Anna Seven London", "text": "Check out our New 'ICIIIX' Sweatshirts & Our New Bomber Jacket on http://Annasevenldn.com\u00a0...Perfect for the Winter!pic.twitter.com/y4EBnDbRGv"}, {"user_id": "3165523371", "location": {"coordinate": {"lat": 43.0481221, "lng": -76.14742439999999}, "name": "Syracuse, NY"}, "timestamp": "1446833913", "user": "nasja????", "text": "Kanyes bomber jacket is 2000 dollars "}, {"user_id": "1189912758", "location": {"coordinate": {"lat": 42.331427, "lng": -83.0457538}, "name": "Detroit, MI"}, "timestamp": "1446836558", "user": "Bailey Shaver", "text": "Remember the guy in the bomber jacket from The Woman in Black 2? Well, this is him now. pic.twitter.com/pz6yMPh3Kg"}, {"user_id": "534043418", "location": {"coordinate": {"lat": 40.7830603, "lng": -73.9712488}, "name": "Manhattan, NY"}, "timestamp": "1446845894", "user": "TAKEOVER", "text": "Originating from the streets. The NYC takeover continues!Elongated bomber jacket available at\u2026 https://instagram.com/p/9wjxlUuFJj/\u00a0"}, {"user_id": "857196542", "location": {"coordinate": {"lat": 39.8912248, "lng": -74.9218324}, "name": "Marlton, NJ"}, "timestamp": "1446847434", "user": "Alicia DiMichele", "text": "We are loving this bomber jacket. Its perfect for the cooler fall days heading into winter because of\u2026 https://instagram.com/p/9wmtjDpUlC/\u00a0"}, {"user_id": "1975513016", "location": {"coordinate": {"lat": 39.9611755, "lng": -82.99879419999999}, "name": "Columbus, OH"}, "timestamp": "1446849801", "user": "Nicole Rhoads", "text": "Happy birthday @AnnnaSabatino !!! I hope you had a wonderful day! Oh and I hope you got the olive bomber jacket! pic.twitter.com/EChfa8PbGU"}, {"user_id": "2224175533", "location": {"coordinate": {"lat": 34.0452883, "lng": -117.9436749}, "name": "Valinda, CA"}, "timestamp": "1446850594", "user": "Mariah Lozano", "text": "Finally got my bomber jacket "}, {"user_id": "1057403432", "location": {"coordinate": {"lat": 53.602267, "lng": -1.794173}, "name": "Honley, England"}, "timestamp": "1446851940", "user": "e l l e", "text": "I want a bomber jacket"}, {"user_id": "298357800", "location": {"coordinate": {"lat": 34.0522342, "lng": -118.2436849}, "name": "Los Angeles, CA"}, "timestamp": "1446863385", "user": "ann ivazov", "text": "I highkey live in my BOMBER jacket"}, {"user_id": "453020170", "location": {"coordinate": {"lat": 55.875322, "lng": -4.391541999999999}, "name": "Renfrew, Scotland"}, "timestamp": "1446901642", "user": "Honeyz.Com", "text": "Check Out Our 'Fur Collar Bomber Jacket'\nOrder Yours Now!!\nOnly \u00a332.99!!\nhttp://www.honeyz.com/shop/clothing/fur-collar-bomber/\u00a0\u2026pic.twitter.com/d3b2Gn8qrQ"}, {"user_id": "324481619", "location": {"coordinate": {"lat": -7.2574719, "lng": 112.7520883}, "name": "Kota Surabaya, Jawa Timur"}, "timestamp": "1446905897", "user": "FRIDAY KILLER Store", "text": "HOXIE BLK Bomber Jacket from @FridayKillerCo  IDR.295.000 for online order 08175234384pic.twitter.com/tLUJOroAsZ"}, {"user_id": "324481619", "location": {"coordinate": {"lat": -7.2574719, "lng": 112.7520883}, "name": "Kota Surabaya, Jawa Timur"}, "timestamp": "1446905919", "user": "FRIDAY KILLER Store", "text": "HOXIE NVY Bomber Jacket from @FridayKillerCo  IDR.295.000 for online order 08175234384pic.twitter.com/QSAlBpwXMe"}, {"user_id": "577652590", "location": {"coordinate": {"lat": 39.9525839, "lng": -75.1652215}, "name": "Philadelphia, PA"}, "timestamp": "1446911941", "user": "Leem's World ????", "text": "I need a black bomber jacket  where can I find one ???"}, {"user_id": "316885316", "location": {"coordinate": {"lat": 29.7604267, "lng": -95.3698028}, "name": "Houston, TX"}, "timestamp": "1446916513", "user": "Chris Eazy 13", "text": "The bomber jacket would be the best investment .-."}, {"user_id": "741579397", "location": {"coordinate": {"lat": 51.4784037, "lng": 0.3230151}, "name": "Grays, East"}, "timestamp": "1446917269", "user": "Marko", "text": "I just found this PENGPENG khaki bomber jacket for \u00a320"}, {"user_id": "293135533", "location": {"coordinate": {"lat": 53.55263, "lng": -1.479726}, "name": "Barnsley, England"}, "timestamp": "1446919382", "user": "Hannah Ellis", "text": "Ripped jeans roll neck bomber jacket Hat wellies big grey coat.... And Gethin has dressed the exact same. How"}, {"user_id": "3043135419", "location": {"coordinate": {"lat": 50.448651, "lng": 3.593407}, "name": "Cond\u00e9-sur-l'Escaut, France"}, "timestamp": "1446920846", "user": "lisa ????", "text": "bomber jacket command\u00e9"}, {"user_id": "351779486", "location": {"coordinate": {"lat": 29.7052284, "lng": -95.1238204}, "name": "Deer Park, TX"}, "timestamp": "1446929031", "user": "BENNY", "text": "@thatkidpedro @burassinewyork is that the bomber jacket ?"}, {"user_id": "3295865136", "location": {"coordinate": {"lat": 34.0522342, "lng": -118.2436849}, "name": "Los Angeles, CA"}, "timestamp": "1446930668", "user": "Andre Emery", "text": "Model @varner1441 taking a few test shots in Andre Emery \"fuzzy\" unisex bomber jacket.  @ Los\u2026 https://instagram.com/p/9zFdtnw-Qh/\u00a0"}, {"user_id": "43576113", "location": {"coordinate": {"lat": 42.2625932, "lng": -71.8022934}, "name": "Worcester, MA"}, "timestamp": "1446934617", "user": "???", "text": "Bomber jacket"}, {"user_id": "1871827806", "location": {"coordinate": {"lat": 40.735657, "lng": -74.1723667}, "name": "Newark, NJ"}, "timestamp": "1446936430", "user": "Mr. Wonderful", "text": "I want the yeezus bomber jacket but it has a fucking confederate flag in the sleeve"}, {"user_id": "43576113", "location": {"coordinate": {"lat": 42.2625932, "lng": -71.8022934}, "name": "Worcester, MA"}, "timestamp": "1446946613", "user": "???", "text": "How to dress up a bomber jacket without heels ?\u00bf"}, {"user_id": "1188413478", "location": {"coordinate": {"lat": 39.9525839, "lng": -75.1652215}, "name": "Philadelphia, PA"}, "timestamp": "1446953617", "user": "Share Designs", "text": "Gap Dark grey Down bomber jacket \nSize med/large \n$20\n#gapjacket #warmcoat #down #cute @ Share Designs https://instagram.com/p/9zxPZpiSxR/\u00a0"}, {"user_id": "407403068", "location": {"coordinate": {"lat": 41.0053753, "lng": -74.2907041}, "name": "Pompton Lakes, NJ"}, "timestamp": "1446958482", "user": "Kayla Perez", "text": "@avery_mcmahon I ordered a bomber jacket td from urban"}, {"user_id": "3323203833", "location": {"coordinate": {"lat": 41.0886216, "lng": -74.1435843}, "name": "Mahwah, NJ"}, "timestamp": "1446960342", "user": "Jay ????", "text": "Gotta cop this bomber jacket"}, {"user_id": "716708882", "location": {"coordinate": {"lat": 34.1477849, "lng": -118.1445155}, "name": "Pasadena, CA"}, "timestamp": "1446964318", "user": "very daddy", "text": "My girlfriend is really awesome. She got a cool grease bomber jacket and a treat for @LinKueiScumle oh yeah what's your address btw!? "}, {"user_id": "324481619", "location": {"coordinate": {"lat": -7.2574719, "lng": 112.7520883}, "name": "Kota Surabaya, Jawa Timur"}, "timestamp": "1446987606", "user": "FRIDAY KILLER Store", "text": "HOXIE BLK Bomber Jacket from @FridayKillerCo  IDR.295.000 for online order 08175234384pic.twitter.com/sV3RnYW0fN"}, {"user_id": "324481619", "location": {"coordinate": {"lat": -7.2574719, "lng": 112.7520883}, "name": "Kota Surabaya, Jawa Timur"}, "timestamp": "1446987809", "user": "FRIDAY KILLER Store", "text": "HOXIE NVY Bomber Jacket from @FridayKillerCo  IDR.295.000 for online order 08175234384pic.twitter.com/BDx6yuVSb7"}, {"user_id": "498954926", "location": {"coordinate": {"lat": 37.0504195, "lng": 140.8876817}, "name": "Iwaki-shi, Fukushima"}, "timestamp": "1447000681", "user": "TAKASHI ENDO", "text": "CROOKS&CASTLES\n-BOMBER JACKET-\n?GM?????\nhttp://gangstamarket.com/?mode=grp&gid=613909&sort=n\u00a0\u2026\n#?? #???\u2026 https://instagram.com/p/91LAlqLubi/\u00a0"}, {"user_id": "857196542", "location": {"coordinate": {"lat": 39.8912248, "lng": -74.9218324}, "name": "Marlton, NJ"}, "timestamp": "1447001267", "user": "Alicia DiMichele", "text": "Feeling bomb  af in the velour bomber jacket . So friggin badass. On trend, fashion forward...\u2026 https://instagram.com/p/91MH84JUtN/\u00a0"}, {"user_id": "296000403", "location": {"coordinate": {"lat": 33.7423178, "lng": -84.1593413}, "name": "Redan, GA"}, "timestamp": "1447003041", "user": "Chey", "text": "want a bomber jacket"}, {"user_id": "490697175", "location": {"coordinate": {"lat": 51.577076, "lng": 0.178319}, "name": "Romford, London"}, "timestamp": "1447003622", "user": "Jack", "text": "Want a bomber jacket"}, {"user_id": "2636889659", "location": {"coordinate": {"lat": 27.6648274, "lng": -81.5157535}, "name": "Florida, USA"}, "timestamp": "1447008144", "user": "Krisman Moline", "text": "Back of Bomber Jacket.. Coming Soon #retiredyounglegacy http://retiredyounglegacy.com\u00a0 http://retiredyounglegacy.com\u00a0pic.twitter.com/SlQnohs39n"}, {"user_id": "3617767459", "location": {"coordinate": {"lat": 32.715738, "lng": -117.1610838}, "name": "San Diego, CA"}, "timestamp": "1447011863", "user": "Dymeah Casey", "text": "Get the Loverbird Bomber Jacket from me on #Vinted. Size 12 / L for $ 20.00: http://www.vinted.com/womens-clothing/bomber-jackets/16915086-loverbird-bomber-jacket-sz-l\u00a0\u2026pic.twitter.com/EMdsyycFET"}, {"user_id": "556072112", "location": {"coordinate": {"lat": 40.6642699, "lng": -73.70846449999999}, "name": "Valley Stream, NY"}, "timestamp": "1447012192", "user": "High Volume", "text": "Insert kicks you would wear with this outfit ... C/o #New #CYBERS Satin bomber #jacket x #Pyradice\u2026 https://instagram.com/p/91g9kARgW6/\u00a0"}, {"user_id": "130966074", "location": {"coordinate": {"lat": 32.6720777, "lng": -97.26918119999999}, "name": "Forest Hill, TX"}, "timestamp": "1447014400", "user": "hunnidouxan\u00ae", "text": "When I just ordered at Bape Bomber Jacket "}, {"user_id": "19357393", "location": {"coordinate": {"lat": 37.5407246, "lng": -77.4360481}, "name": "Richmond, VA"}, "timestamp": "1447014779", "user": "rumors boutique", "text": "Come find your perfect fall look! The Southwest Bomber Jacket is courtesy of thecosmiccircle  (Size\u2026 https://instagram.com/p/91l5K_NiMW/\u00a0"}, {"user_id": "3111344423", "location": {"coordinate": {"lat": 31.9685988, "lng": -99.9018131}, "name": "Texas, USA"}, "timestamp": "1447015709", "user": "eu ????????", "text": "Currently scavenging the World Wide Web for a white bomber jacket"}, {"user_id": "315349786", "location": {"coordinate": {"lat": 32.7229096, "lng": -96.9819507}, "name": "Lakeland Heights, TX"}, "timestamp": "1447049720", "user": "Milli", "text": "I need a green bomber jacket"}, {"user_id": "324481619", "location": {"coordinate": {"lat": -7.2574719, "lng": 112.7520883}, "name": "Kota Surabaya, Jawa Timur"}, "timestamp": "1447073084", "user": "FRIDAY KILLER Store", "text": "HOXIE BLK Bomber Jacket from @FridayKillerCo  IDR.295.000 for online order 08175234384pic.twitter.com/GQmjdDP4XU"}, {"user_id": "324481619", "location": {"coordinate": {"lat": -7.2574719, "lng": 112.7520883}, "name": "Kota Surabaya, Jawa Timur"}, "timestamp": "1447073169", "user": "FRIDAY KILLER Store", "text": "HOXIE NVY Bomber Jacket from @FridayKillerCo  IDR.295.000 for online order 08175234384pic.twitter.com/BxocOHljdO"}, {"user_id": "346071074", "location": {"coordinate": {"lat": 28.0105745, "lng": -82.57731930000001}, "name": "Town 'n' Country, FL"}, "timestamp": "1447077856", "user": "ty dolla menu.", "text": "Ordered am olive bomber jacket off Ebay for a smooth $20. Nice try, NastyGal "}, {"user_id": "3035647234", "location": {"coordinate": {"lat": 52.904532, "lng": -8.9811351}, "name": "Clare, Ireland"}, "timestamp": "1447080611", "user": "Hunter Gatherer IRE", "text": "@lidl_ireland Hey guys! I featured your black quilted bomber jacket in today's blog post! http://www.huntergatherer.ie/#!Brass-Neck/cmbz/563fe97d0cf21009be7d81e6\u00a0\u2026pic.twitter.com/xVsci1iRN4"}, {"user_id": "1271309641", "location": {"coordinate": {"lat": 41.8781136, "lng": -87.6297982}, "name": "Chicago, IL"}, "timestamp": "1447087720", "user": "Zoom.?", "text": "Who can put me on to a raw ass bomber jacket"}, {"user_id": "1188413478", "location": {"coordinate": {"lat": 39.9525839, "lng": -75.1652215}, "name": "Philadelphia, PA"}, "timestamp": "1447093825", "user": "Share Designs", "text": "Black bomber jacket \nBrand new \nSize small/ med \n$25\n#greatlook #bomberjacket #warmcoat @ Share Designs https://instagram.com/p/938qnzCS5e/\u00a0"}, {"user_id": "403793512", "location": {"coordinate": {"lat": 33.7635422, "lng": -117.7901088}, "name": "North Tustin, CA"}, "timestamp": "1447097617", "user": "Rachel Weatherly", "text": "I WANT A BOMBER JACKET SO BAD"}, {"user_id": "423571353", "location": {"coordinate": {"lat": 57.149717, "lng": -2.094278}, "name": "Aberdeen, Scotland"}, "timestamp": "1447105164", "user": "Lauren Scobbie", "text": "Absolutely need @JessicaWoodley 's brown bomber jacket in my life"}, {"user_id": "43548154", "location": {"coordinate": {"lat": 40.6781784, "lng": -73.9441579}, "name": "Brooklyn, NY"}, "timestamp": "1447109379", "user": "FELTRAIGER", "text": "The feltraiger \"Byron\" bomber jacket in Camo is now shipping to our retail partners as well as\u2026 https://instagram.com/p/94aU6KroXm/\u00a0"}, {"user_id": "200212952", "location": {"coordinate": {"lat": 37.7749295, "lng": -122.4194155}, "name": "San Francisco, CA"}, "timestamp": "1447116161", "user": "Welcome Stranger", "text": "Clean bomber jacket by ontour.nl with long zipper pockets on the front. Laminate coating on the\u2026 https://instagram.com/p/94nRHdE8AQ/\u00a0"}, {"user_id": "1730265060", "location": {"coordinate": {"lat": 32.3199396, "lng": -106.7636538}, "name": "Las Cruces, NM"}, "timestamp": "1447122743", "user": "nicole", "text": "I'm literally begging for a white bomber jacket  I don't know where to find one "}, {"user_id": "416096689", "location": {"coordinate": {"lat": 34.0522342, "lng": -118.2436849}, "name": "Los Angeles, CA"}, "timestamp": "1447127725", "user": "Idolize \u00ae", "text": "#Lostcitycollection || Bomber Jacket || Terry Cotton Long T || Biker Joggers @ Los Angeles, California https://instagram.com/p/949U1FENK_/\u00a0"}, {"user_id": "417685562", "location": {"coordinate": {"lat": 33.9680703, "lng": -118.2250723}, "name": "Walnut Park, CA"}, "timestamp": "1447127831", "user": "Sorcerer Supreme", "text": "Need a bomber jacket"}, {"user_id": "2883360762", "location": {"coordinate": {"lat": 35.0104252, "lng": 135.7514114}, "name": "Kyoto City Nakagyo Ward, Kyoto"}, "timestamp": "1447133111", "user": "LettersBy", "text": "Vic: Loving my new bomber jacket~ \n\n#ootd #ootdcampaign #stylexstyle #potd #wiwt #ootdmagazine\u2026 https://instagram.com/p/95HmUapp0Z/\u00a0"}, {"user_id": "1014399014", "location": {"coordinate": {"lat": 44.977753, "lng": -93.2650108}, "name": "Minneapolis, MN"}, "timestamp": "1447138886", "user": "jihottie", "text": "@ShahXCIV everyone buying a bomber jacket is evidently \"street\" \"fashionable\" \"edgy\" lmao"}, {"user_id": "233880993", "location": {"coordinate": {"lat": -33.9248685, "lng": 18.4240553}, "name": "Cape Town, South Africa"}, "timestamp": "1447139766", "user": "Farzaanah Richards", "text": "WIN this streetlinesapparel White Bomber Jacket worth R350 AND a @maccosmetics Beauty Box sponsored\u2026 https://instagram.com/p/95URk-wIKT/\u00a0"}, {"user_id": "3127695870", "location": {"coordinate": {"lat": 34.0522342, "lng": -118.2436849}, "name": "Los Angeles, CA"}, "timestamp": "1447144169", "user": "Jasmine", "text": "I've been wanting a bomber jacket so bad"}, {"user_id": "72192633", "location": {"coordinate": {"lat": 41.9294736, "lng": -88.75036469999999}, "name": "DeKalb, IL"}, "timestamp": "1447149022", "user": "They Love A. ????????", "text": "Sliver or pink bomber jacket?"}, {"user_id": "249852834", "location": {"coordinate": {"lat": 33.886917, "lng": 9.537499}, "name": "Tunisia"}, "timestamp": "1447160698", "user": "?Asli Mrs Khan?", "text": "RT\"@bebeinghuman: You will WANT this bomber jacket. #BHMen pic.twitter.com/ycmQkXU6JZ\""}, {"user_id": "320524024", "location": {"coordinate": {"lat": 28.5577794, "lng": -81.4534046}, "name": "Pine Hills, FL"}, "timestamp": "1447161601", "user": "This Ain't That", "text": "I want this yeezy bomber jacket but $2,450....  lol . Still might cop it."}, {"user_id": "324481619", "location": {"coordinate": {"lat": -7.2574719, "lng": 112.7520883}, "name": "Kota Surabaya, Jawa Timur"}, "timestamp": "1447163947", "user": "FRIDAY KILLER Store", "text": "HOXIE BLK Bomber Jacket from @FridayKillerCo  IDR.295.000 for online order 08175234384pic.twitter.com/Ws25cVuAew"}, {"user_id": "324481619", "location": {"coordinate": {"lat": -7.2574719, "lng": 112.7520883}, "name": "Kota Surabaya, Jawa Timur"}, "timestamp": "1447164000", "user": "FRIDAY KILLER Store", "text": "HOXIE NVY Bomber Jacket from @FridayKillerCo  IDR.295.000 for online order 08175234384pic.twitter.com/x2rBDStpmt"}, {"user_id": "718355845", "location": {"coordinate": {"lat": 43.0481221, "lng": -76.14742439999999}, "name": "Syracuse, NY"}, "timestamp": "1447169415", "user": "Slay Muva??", "text": "I need me a olive green bomber jacket"}, {"user_id": "3436813384", "location": {"coordinate": {"lat": 38.8338816, "lng": -104.8213634}, "name": "Colorado Springs, CO"}, "timestamp": "1447170437", "user": "kameron richie", "text": "a drunk yt at the bowling alley tried to trade me his hooded vest for my Zara  bomber jacket. I thought he was kidding; he was not."}, {"user_id": "1011289242", "location": {"coordinate": {"lat": 29.2728333, "lng": 47.9391371}, "name": "Ashbeliah, Kuwait"}, "timestamp": "1447171615", "user": "????", "text": "I just want to be cool and get a bomber jacket but life isn't fair"}, {"user_id": "570864647", "location": {"coordinate": {"lat": 40.7830603, "lng": -73.9712488}, "name": "Manhattan, NY"}, "timestamp": "1447172231", "user": ".", "text": "Calm like a bomb. Find out all the details for this gorgeous  bomber jacket at http://StreetSiren.com\u00a0.\u2026 https://instagram.com/p/96SNq_ExdZ/\u00a0"}, {"user_id": "1724619422", "location": {"coordinate": {"lat": 34.0122346, "lng": -117.688944}, "name": "Chino, CA"}, "timestamp": "1447174268", "user": "Lil B", "text": "I need a bomber jacket!!!!"}, {"user_id": "2612139788", "location": {"coordinate": {"lat": 32.1656221, "lng": -82.9000751}, "name": "Georgia, USA"}, "timestamp": "1447174925", "user": "....????", "text": "Still looking for a nice bomber jacket"}, {"user_id": "562503634", "location": {"coordinate": {"lat": 40.7692649, "lng": -73.1151117}, "name": "Bohemia, NY"}, "timestamp": "1447196965", "user": "Marissa  DiEmidio", "text": "I need a black and/or green bomber jacket in my life"}, {"user_id": "2178238634", "location": {"coordinate": {"lat": 41.5039235, "lng": -87.71310179999999}, "name": "Matteson, IL"}, "timestamp": "1447211721", "user": "Likkaya", "text": "Just ordered a grey and olive green bomber jacket"}, {"user_id": "52277392", "location": {"coordinate": {"lat": 34.0900091, "lng": -118.3617443}, "name": "West Hollywood, CA"}, "timestamp": "1447212021", "user": "SSURender your ego", "text": "#ssurplus #flight #bomber #jacket #limited #restock http://SSUR.com\u00a0 @ SSUR https://instagram.com/p/97eG0RqOTl/\u00a0"}, {"user_id": "1056841344", "location": {"coordinate": {"lat": 29.7604267, "lng": -95.3698028}, "name": "Houston, TX"}, "timestamp": "1447215486", "user": "J", "text": "i want a bape bomber jacket "}, {"user_id": "551913896", "location": {"coordinate": {"lat": 28.5383355, "lng": -81.3792365}, "name": "Orlando, FL"}, "timestamp": "1447217878", "user": "Mamita?", "text": "I hope this winter is as cold as a Florida winter to be . I WILL WEAR THIS BOMBER JACKET pic.twitter.com/l4s5wD3g6r"}, {"user_id": "20385558", "location": {"coordinate": {"lat": 47.6062095, "lng": -122.3320708}, "name": "Seattle, WA"}, "timestamp": "1447218706", "user": "Nicky Garcia", "text": "It's 40 degrees in Seattle, how are girls dressed scantily clad tonight? I have a bomber jacket on and I'm still cold "}, {"user_id": "50075971", "location": {"coordinate": {"lat": 25.5428443, "lng": -103.4067861}, "name": "Torre\u00f3n, Coahuila de Zaragoza"}, "timestamp": "1447222897", "user": "Geraldyn Gallegos", "text": "Bomber Jacket \nTalla G $200.00 \nPieza \u00fanica \n\n#consumelocal #newarrivals #torreon #bomberjacket @\u2026 https://instagram.com/p/97y2k0JPbr/\u00a0"}, {"user_id": "2492119609", "location": {"coordinate": {"lat": 47.3768866, "lng": 8.541694}, "name": "Zurich, Switzerland"}, "timestamp": "1447226485", "user": "I Am Metal Heart", "text": "I had a blast yesterday at the @diesel press day. This gorgeous silky bomber jacket from the S/S16\u2026 https://instagram.com/p/975sgqv-ly/\u00a0"}, {"user_id": "1561579490", "location": {"coordinate": {"lat": 53.3498053, "lng": -6.2603097}, "name": "Dublin City, Ireland"}, "timestamp": "1447235293", "user": "sarah", "text": "Bomber jacket and a pair of Stan smiths are devo on my list to purchase"}, {"user_id": "4002062533", "location": {"coordinate": {"lat": 36.0971945, "lng": -115.1466648}, "name": "Paradise, NV"}, "timestamp": "1447238144", "user": "Celia J Murrieta", "text": "regrann from @chiquis626  -  #OOTN Bomber Jacket from @fashionnova\u2026 https://instagram.com/p/98P7yMJL3HMyZ7L6Bd-z5VlfgcGzhr1SadNLw0/\u00a0\u2026"}, {"user_id": "4002062533", "location": {"coordinate": {"lat": 36.0971945, "lng": -115.1466648}, "name": "Paradise, NV"}, "timestamp": "1447238152", "user": "Celia J Murrieta", "text": "regrann from @chiquis626 -  #OOTN Bomber Jacket from @fashionnova\u2026 https://instagram.com/p/98P7yMJL3HMyZ7L6Bd-z5VlfgcGzhr1SadNLw0/\u00a0\u2026"}, {"user_id": "2262395658", "location": {"coordinate": {"lat": 39.768403, "lng": -86.158068}, "name": "Indianapolis, IN"}, "timestamp": "1447240748", "user": "????", "text": "36 degrees means I can wear a hoodie & a bomber jacket bet"}, {"user_id": "324481619", "location": {"coordinate": {"lat": -7.2574719, "lng": 112.7520883}, "name": "Kota Surabaya, Jawa Timur"}, "timestamp": "1447246973", "user": "FRIDAY KILLER Store", "text": "HOXIE BLK Bomber Jacket from @FridayKillerCo  IDR.295.000 for online order 08175234384pic.twitter.com/xekGOojXo5"}, {"user_id": "324481619", "location": {"coordinate": {"lat": -7.2574719, "lng": 112.7520883}, "name": "Kota Surabaya, Jawa Timur"}, "timestamp": "1447247000", "user": "FRIDAY KILLER Store", "text": "HOXIE NVY Bomber Jacket from @FridayKillerCo  IDR.295.000 for online order 08175234384pic.twitter.com/pYrD9I5vYe"}, {"user_id": "257980490", "location": {"coordinate": {"lat": 25.2048493, "lng": 55.2707828}, "name": "Dubai, United Arab Emirates"}, "timestamp": "1447248450", "user": "Gingham and Sparkle", "text": "New blog post up...all about the bomber jacket and how it's having a major fashion revival  #1990s #bomberjacketpic.twitter.com/viLI7ZZxs8"}, {"user_id": "29383906", "location": {"coordinate": {"lat": 36.0971945, "lng": -115.1466648}, "name": "Paradise, NV"}, "timestamp": "1447249534", "user": "Things We Heart", "text": "The (old..yet totally new) bomber jacket http://www.thingsweheart.com/perfect-10/2015/11/10/the-newyet-totally-old-bomber-jacket\u00a0\u2026"}, {"user_id": "860517085", "location": {"coordinate": {"lat": 34.0522342, "lng": -118.2436849}, "name": "Los Angeles, CA"}, "timestamp": "1447267031", "user": "tapaturnt", "text": "1. where can I find a bomber jacket that's not expensive\n2. Where can I find a faux Sherpa lined Jean jacket that's not expensive"}, {"user_id": "29659145", "location": {"coordinate": {"lat": 25.6573447, "lng": -100.4017501}, "name": "San Pedro Garza Garc\u00eda, Nuevo Le\u00f3n"}, "timestamp": "1447270842", "user": "Javi Garcia", "text": "Rosa Palo Sheer Belted Tube Dress + Rose Petal Bomber Jacket. Shop for this look online. Link in\u2026 https://instagram.com/p/99OS50rgbp/\u00a0"}, {"user_id": "20110434", "location": {"coordinate": {"lat": 29.95106579999999, "lng": -90.0715323}, "name": "New Orleans, LA"}, "timestamp": "1447277235", "user": "Algierslady", "text": "While sitting at the @Applebees counter, Veteran with a Bomber jacket on decorated w/medals sat down. He was proud & we were proud of him"}, {"user_id": "417685562", "location": {"coordinate": {"lat": 33.8316745, "lng": -118.281693}, "name": "Carson, CA"}, "timestamp": "1447279149", "user": "Sorcerer Supreme", "text": "Bought a bomber jacket for a bill before I would've been debating about it like should I lmao"}, {"user_id": "447221396", "location": {"coordinate": {"lat": 53.38112899999999, "lng": -1.470085}, "name": "Sheffield, England"}, "timestamp": "1447279268", "user": "Charlotte Rooney", "text": "love my new bomber jacket"}, {"user_id": "192371766", "location": {"coordinate": {"lat": 51.280233, "lng": 1.0789089}, "name": "Canterbury, England"}, "timestamp": "1447285506", "user": "LeaveMeAlone", "text": "GUYS IVE JUST SEEN A FEMALE IN LIGHT BLUE BOOTCUT jeans and a black bomber jacket & tims "}, {"user_id": "601429378", "location": {"coordinate": {"lat": 41.7475933, "lng": -74.0868095}, "name": "New Paltz, NY"}, "timestamp": "1447286942", "user": "Scarmeleon", "text": "@gang_greenE your bomber jacket is wavy"}, {"user_id": "2950695278", "location": {"coordinate": {"lat": 32.5251516, "lng": -93.7501789}, "name": "Shreveport, LA"}, "timestamp": "1447295513", "user": "M.Minter??\u2122", "text": "Nikes, jeans, and a bomber jacket  https://twitter.com/maiya_blood/status/654468952492408832\u00a0\u2026"}, {"user_id": "2434973545", "location": {"coordinate": {"lat": 33.5422475, "lng": -117.7831104}, "name": "Laguna, CA"}, "timestamp": "1447297672", "user": "Aaliyah", "text": "My nail lady is so obsessed with my bomber jacket "}, {"user_id": "232584528", "location": {"coordinate": {"lat": 51.451169, "lng": 0.052639}, "name": "Eltham, London"}, "timestamp": "1447297869", "user": "Zeeloh", "text": "Iz my bomber jacket alright "}, {"user_id": "38624914", "location": {"coordinate": {"lat": 34.0922335, "lng": -117.435048}, "name": "Fontana, CA"}, "timestamp": "1447299899", "user": "Raquel Azusena??", "text": "Macys has great deals if you wait'n I got an $80 jacket for $42, a bomber jacket for $28, originally priced $49!"}, {"user_id": "727101414", "location": {"coordinate": {"lat": 33.9414035, "lng": -118.3022963}, "name": "Westmont, CA"}, "timestamp": "1447304698", "user": "L", "text": "i need to find a cute bomber jacket"}, {"user_id": "495201278", "location": {"coordinate": {"lat": 40.7830603, "lng": -73.9712488}, "name": "Manhattan, NY"}, "timestamp": "1447305266", "user": "Dank", "text": "Fuckin Palace bomber jacket sold out <"}, {"user_id": "839027240", "location": {"coordinate": {"lat": 42.0624646, "lng": -104.1843942}, "name": "South Torrington, WY"}, "timestamp": "1447307935", "user": "Mark Larson", "text": "I can't wait for @ThaAlumni all leather #24K snapback and the bomber jacket! #BlackFriday #ThaAlumni "}, {"user_id": "92662947", "location": {"coordinate": {"lat": 33.4936391, "lng": -117.1483648}, "name": "Temecula, CA"}, "timestamp": "1447308847", "user": "MickeyPapa", "text": "What do ya think about this bomber jacket? pic.twitter.com/HIYDk5OkG6"}, {"user_id": "417685562", "location": {"coordinate": {"lat": 33.9680703, "lng": -118.2250723}, "name": "Walnut Park, CA"}, "timestamp": "1447309718", "user": "Sorcerer Supreme", "text": "Want my bomber jacket to get here"}, {"user_id": "74668124", "location": {"coordinate": {"lat": 34.0522342, "lng": -118.2436849}, "name": "Los Angeles, CA"}, "timestamp": "1447313513", "user": "Norris Danta Ford", "text": "Checkout this outfit & more on the blog...\n5 ways to style a \"BOMBER JACKET\"\n\u2026 https://instagram.com/p/9-fmJVqLJm/\u00a0"}, {"user_id": "386779101", "location": {"coordinate": {"lat": 51.7520209, "lng": -1.2577263}, "name": "Oxford, England"}, "timestamp": "1447313536", "user": "Martin Lidbury", "text": "Can't wait to get my bomber jacket "}, {"user_id": "324481619", "location": {"coordinate": {"lat": -7.2574719, "lng": 112.7520883}, "name": "Kota Surabaya, Jawa Timur"}, "timestamp": "1447338184", "user": "FRIDAY KILLER Store", "text": "HOXIE BLK Bomber Jacket from @FridayKillerCo  IDR.295.000 for online order 08175234384pic.twitter.com/PMMqqA9AV0"}, {"user_id": "324481619", "location": {"coordinate": {"lat": -7.2574719, "lng": 112.7520883}, "name": "Kota Surabaya, Jawa Timur"}, "timestamp": "1447338260", "user": "FRIDAY KILLER Store", "text": "HOXIE NVY Bomber Jacket from @FridayKillerCo  IDR.295.000 for online order 08175234384pic.twitter.com/6VSwuk4xCV"}, {"user_id": "2915012186", "location": {"coordinate": {"lat": 31.7618778, "lng": -106.4850217}, "name": "El Paso, TX"}, "timestamp": "1447341793", "user": "Andrew Alexander", "text": "I want a bomber jacket + 474829 more hoodies and winter clothing "}, {"user_id": "50390432", "location": {"coordinate": {"lat": 36.0395247, "lng": -114.9817213}, "name": "Henderson, NV"}, "timestamp": "1447342924", "user": "Troy Swezey", "text": "@DJSKYFALL69 Right? Was gonna get #TomFord bomber jacket but, uh, $2200USD. @hmusa - $60 Just saying. Thanks. @Bond_Lifestyle @BondLife"}, {"user_id": "857196542", "location": {"coordinate": {"lat": 39.8912248, "lng": -74.9218324}, "name": "Marlton, NJ"}, "timestamp": "1447346460", "user": "Alicia DiMichele", "text": "#OOTD What are you wearing on this rainy day\n\"Must Have\" item is a Bomber Jacket from\u2026 https://instagram.com/p/9_ehQAPyjV/\u00a0"}, {"user_id": "620370456", "location": {"coordinate": {"lat": 53.4807593, "lng": -2.2426305}, "name": "Manchester, England"}, "timestamp": "1447347039", "user": "jake scott", "text": "well want a versace bomber jacket"}, {"user_id": "857196542", "location": {"coordinate": {"lat": 39.8912248, "lng": -74.9218324}, "name": "Marlton, NJ"}, "timestamp": "1447348248", "user": "Alicia DiMichele", "text": "Our Boss @aliciadimichele rockin' our \"Must Have\" Bomber Jacket Shop http://www.aliciadimichele.com\u00a0\u2026 https://instagram.com/p/9_h8CJJUhE/\u00a0"}, {"user_id": "17729040", "location": {"coordinate": {"lat": 40.6642699, "lng": -73.70846449999999}, "name": "Valley Stream, NY"}, "timestamp": "1447349915", "user": "HIgh Volume #HVLM", "text": "Insert kicks you would wear with this outfit ... C/o #New #CYBERS Satin bomber #jacket x #Pyradice\u2026 https://instagram.com/p/9_lHeoxgVZ/\u00a0"}, {"user_id": "381307869", "location": {"coordinate": {"lat": 40.6781784, "lng": -73.9441579}, "name": "Brooklyn, NY"}, "timestamp": "1447353502", "user": "dani california", "text": "i want a cool bomber jacket"}, {"user_id": "578745584", "location": {"coordinate": {"lat": 53.680122, "lng": -1.696713}, "name": "Mirfield, England"}, "timestamp": "1447354534", "user": "soph", "text": "Really want a bomber jacket"}, {"user_id": "2589656826", "location": {"coordinate": {"lat": 37.3382082, "lng": -121.8863286}, "name": "San Jose, CA"}, "timestamp": "1447360207", "user": "lovelysarah", "text": "Where could I find a cute Beige bomber jacket? "}, {"user_id": "34621892", "location": {"coordinate": {"lat": 51.4519021, "lng": 0.1171786}, "name": "Bexley, London"}, "timestamp": "1447363828", "user": "Chris Dolan", "text": "@Harrods @Dynamomagician Nice PS bomber jacket mate."}, {"user_id": "233068932", "location": {"coordinate": {"lat": 36.0726354, "lng": -79.7919754}, "name": "Greensboro, NC"}, "timestamp": "1447376023", "user": "richelle k.", "text": "ASOS is the  for Jalen's fly leather bomber jacket. Check out the article he's featured in! Link in\u2026 https://instagram.com/p/-AW6L8hsj2/\u00a0"}, {"user_id": "550237555", "location": {"coordinate": {"lat": 33.836081, "lng": -81.1637245}, "name": "South Carolina, USA"}, "timestamp": "1447377247", "user": "lisa pisa", "text": "Need a bomber jacket"}, {"user_id": "2320791304", "location": {"coordinate": {"lat": 43.0534843, "lng": -71.0735476}, "name": "Epping, NH"}, "timestamp": "1447382868", "user": "Mib", "text": "97% sure someone stole my UNIF bomber jacket out of my gym locker and to that person who did know that I will find u, u freakin asswipe."}, {"user_id": "400761387", "location": {"coordinate": {"lat": -6.6037111, "lng": 106.7647475}, "name": "Ciomas, Indonesia"}, "timestamp": "1447384235", "user": "DeepSouth", "text": "#NewArticle bomber jacket \ncode: top gun black\nidr 315k\nreseller info / order:\nline: deepsouth23\nwa:\u2026 https://instagram.com/p/-AmlEKvm1U/\u00a0"}, {"user_id": "204346046", "location": {"coordinate": {"lat": 36.56132540000001, "lng": 136.6562051}, "name": "Kanazawa-shi, Ishikawa"}, "timestamp": "1447387380", "user": "Hironori Yuki", "text": "???????????????????????\n-\nPOLeR OUTDOOR STUFF\nDOWN BOMBER JACKET -\u2026 https://instagram.com/p/-AslAWxP58/\u00a0"}, {"user_id": "3002903629", "location": {"coordinate": {"lat": 33.8752935, "lng": -117.5664384}, "name": "Corona, CA"}, "timestamp": "1447394119", "user": "Matteo ++\u00ae", "text": "I'm def getting that Nasa bomber jacket for sure"}, {"user_id": "324481619", "location": {"coordinate": {"lat": -7.2574719, "lng": 112.7520883}, "name": "Kota Surabaya, Jawa Timur"}, "timestamp": "1447423209", "user": "FRIDAY KILLER Store", "text": "HOXIE BLK Bomber Jacket from @FridayKillerCo  IDR.295.000 for online order 08175234384pic.twitter.com/TvShgD615m"}, {"user_id": "324481619", "location": {"coordinate": {"lat": -7.2574719, "lng": 112.7520883}, "name": "Kota Surabaya, Jawa Timur"}, "timestamp": "1447423263", "user": "FRIDAY KILLER Store", "text": "HOXIE NVY Bomber Jacket from @FridayKillerCo  IDR.295.000 for online order 08175234384pic.twitter.com/s5h9Fd7qcJ"}, {"user_id": "276304215", "location": {"coordinate": {"lat": 33.8352932, "lng": -117.9145036}, "name": "Anaheim, CA"}, "timestamp": "1447425472", "user": "davissss", "text": "it's Friday! that means new @YELLOWCLAW from that #BloodForMercy album! dropping November 20th! I want that fucking bomber jacket!!!"}, {"user_id": "3313826560", "location": {"coordinate": {"lat": 40.7830603, "lng": -73.9712488}, "name": "Manhattan, NY"}, "timestamp": "1447427989", "user": "LOVE GANG NYC", "text": "And just like that, the last gkeroparis reversible #davidbowie bomber jacket rode off and enjoyed the\u2026 https://instagram.com/p/-B6CJsujm6/\u00a0"}, {"user_id": "768336080", "location": {"coordinate": {"lat": 50.782998, "lng": -0.673061}, "name": "Bognor Regis, England"}, "timestamp": "1447433989", "user": "lils", "text": "Oh my god mum brought me the nicest bomber jacket Jan knows"}, {"user_id": "473221859", "location": {"coordinate": {"lat": 52.95478319999999, "lng": -1.1581086}, "name": "Nottingham, England"}, "timestamp": "1447448511", "user": "nick", "text": "I've discovered online shopping and am now \u00a335 worse off for a fresh bomber jacket w/ black vans "}, {"user_id": "219455456", "location": {"coordinate": {"lat": 40.7830603, "lng": -73.9712488}, "name": "Manhattan, NY"}, "timestamp": "1447454689", "user": "Sachin & Babi", "text": "NOT YOUR AVERAGE BOMBER -  Check out @shallwesasa rocking our Lola Bomber Jacket http://bit.ly/1Psdiku\u00a0pic.twitter.com/QFeZgXCgRz"}, {"user_id": "906889117", "location": {"coordinate": {"lat": 27.6648274, "lng": -81.5157535}, "name": "Florida, USA"}, "timestamp": "1447458199", "user": "Pimpin'", "text": "Pulled out the black bomber jacket"}, {"user_id": "44435077", "location": {"coordinate": {"lat": 52.449845, "lng": -2.050526}, "name": "Halesowen, England"}, "timestamp": "1447459451", "user": "Rebekah-Jade", "text": "The bomber jacket  https://twitter.com/1dwwinfo/status/665314469229289472\u00a0\u2026"}, {"user_id": "15160022", "location": {"coordinate": {"lat": 30.7478954, "lng": -81.57061089999999}, "name": "St Marys, GA"}, "timestamp": "1447460331", "user": "Michelle", "text": "I want a pink bomber jacket & I know exactly where to get it from. However I can't spend money on bullshit "}, {"user_id": "324481619", "location": {"coordinate": {"lat": -7.2574719, "lng": 112.7520883}, "name": "Kota Surabaya, Jawa Timur"}, "timestamp": "1447507044", "user": "FRIDAY KILLER Store", "text": "HOXIE BLK Bomber Jacket from @FridayKillerCo  IDR.295.000 for online order 08175234384pic.twitter.com/DuVe8ladmi"}, {"user_id": "324481619", "location": {"coordinate": {"lat": -7.2574719, "lng": 112.7520883}, "name": "Kota Surabaya, Jawa Timur"}, "timestamp": "1447507083", "user": "FRIDAY KILLER Store", "text": "HOXIE NVY Bomber Jacket from @FridayKillerCo  IDR.295.000 for online order 08175234384pic.twitter.com/9L8uR7fPpd"}, {"user_id": "358390282", "location": {"coordinate": {"lat": 30.7235263, "lng": -95.55077709999999}, "name": "Huntsville, TX"}, "timestamp": "1447519535", "user": "Quenton St.Patrick", "text": "I need all black bomber jacket . That simply says \"Uncle Drew\" on the back ..."}, {"user_id": "225528385", "location": {"coordinate": {"lat": 51.55179529999999, "lng": -0.0646437}, "name": "Hackney, London"}, "timestamp": "1447520609", "user": "Remy LeBeau", "text": "The Alpha Industries NASA bomber jacket bangs so much.."}, {"user_id": "472041827", "location": {"coordinate": {"lat": 50.95842, "lng": 4.23244}, "name": "Merchtem, Belgi\u00eb"}, "timestamp": "1447526660", "user": "???? pets & pin-ups ????", "text": "Sporting my new dress at the Brussels Tattoo Convention! Need a bomber jacket now :) #sourpuss #retro #army #btcpic.twitter.com/5IXrKUNWKO"}, {"user_id": "3002343065", "location": {"coordinate": {"lat": 51.5459269, "lng": 0.7077123}, "name": "Southend-on-Sea, East"}, "timestamp": "1447528417", "user": "Fashion News", "text": "Five ways to wear... a navy bomber jacket - in pictures http://j.mp/1MJ4zrF\u00a0 #Fashionpic.twitter.com/27omhSsbAA"}, {"user_id": "1835582624", "location": {"coordinate": {"lat": 36.1699412, "lng": -115.1398296}, "name": "Las Vegas, NV"}, "timestamp": "1447549032", "user": "???????", "text": "I need a bomber jacket ASAP"}, {"user_id": "1188413478", "location": {"coordinate": {"lat": 39.9525839, "lng": -75.1652215}, "name": "Philadelphia, PA"}, "timestamp": "1447557405", "user": "Share Designs", "text": "Black bomber jacket \nBrand new \nSize small/ med $25\n#greatlook #bomberjacket #warmcoat @ Share Designs https://instagram.com/p/-Fw4AACS9u/\u00a0"}, {"user_id": "308051831", "location": {"coordinate": {"lat": 40.7830603, "lng": -73.9712488}, "name": "Manhattan, NY"}, "timestamp": "1447571293", "user": "Jollof Papi ????????", "text": "Every nigga in NYC has a bomber jacket"}, {"user_id": "19103738", "location": {"coordinate": {"lat": 32.715738, "lng": -117.1610838}, "name": "San Diego, CA"}, "timestamp": "1447573931", "user": "Liza??", "text": "I finally got my bomber jacket that I wanted"}, {"user_id": "42383407", "location": {"coordinate": {"lat": -26.2041028, "lng": 28.0473051}, "name": "Johannesburg, South Africa"}, "timestamp": "1447583829", "user": "PALSE presents SOUL", "text": "@naymaps #PALSEhomme steez in our eyelet bomber jacket + tee. Tonight he'll be clad in\u2026 https://instagram.com/p/-GjRiRBfuK/\u00a0"}, {"user_id": "2817222696", "location": {"coordinate": {"lat": 1.3614591, "lng": 103.8387689}, "name": "North Region, Singapore"}, "timestamp": "1447599111", "user": "aie", "text": "I want to own one acne studio apparels or fear of god bomber jacket."}, {"user_id": "202793235", "location": {"coordinate": {"lat": 41.49932, "lng": -81.6943605}, "name": "Cleveland, OH"}, "timestamp": "1447604217", "user": "MVNTE", "text": "I had a dream I had a balmain bomber jacket in like a suede box and shit & A$AP Ant was dating my ex weird asf."}, {"user_id": "127515277", "location": {"coordinate": {"lat": 50.8197675, "lng": -1.0879769}, "name": "Portsmouth, England"}, "timestamp": "1447621504", "user": "Ryan White", "text": "Ant loves a bomber jacket"}, {"user_id": "1171026962", "location": {"coordinate": {"lat": 33.9401088, "lng": -118.1331593}, "name": "Downey, CA"}, "timestamp": "1447623561", "user": "DANNY D I E Z E L", "text": "I wanted a bomber jacket but now that everyone has one I don't really care "}, {"user_id": "335630698", "location": {"coordinate": {"lat": 33.5801103, "lng": -85.0766113}, "name": "Carrollton, GA"}, "timestamp": "1447626908", "user": "princess?", "text": "I need a bomber jacket"}, {"user_id": "569285067", "location": {"coordinate": {"lat": 32.715738, "lng": -117.1610838}, "name": "San Diego, CA"}, "timestamp": "1447631665", "user": "salem", "text": "Did I just find a Max Mara bomber jacket at the flea market? Hell yeah I did"}, {"user_id": "2802700746", "location": {"coordinate": {"lat": 33.7700504, "lng": -118.1937395}, "name": "Long Beach, CA"}, "timestamp": "1447643225", "user": "2drunk", "text": "Swear I need to look for a navy blue bomber jacket my school dumb asf"}, {"user_id": "302897020", "location": {"coordinate": {"lat": 33.7939953, "lng": -84.6604899}, "name": "Lithia Springs, GA"}, "timestamp": "1447645256", "user": "Ray ????", "text": "@bbykeej no I want the bomber jacket. I'll get you a body suit, ur body's nice."}, {"user_id": "2946779941", "location": {"coordinate": {"lat": 36.09985959999999, "lng": -80.244216}, "name": "Winston-Salem, NC"}, "timestamp": "1447645836", "user": "Lauren", "text": "I purchased another bomber jacket from the mall today & I was just so excited"}, {"user_id": "534211486", "location": {"coordinate": {"lat": 50.263195, "lng": -5.051041}, "name": "Truro, England"}, "timestamp": "1447658643", "user": "We Are PLB", "text": "Ready to take on Monday in this cheeky bomber jacket by @hm @ Preloved Boutique Truro https://instagram.com/p/-Ix-FONBN_/\u00a0"}, {"user_id": "14746578", "location": {"coordinate": {"lat": 38.2526647, "lng": -85.7584557}, "name": "Louisville, KY"}, "timestamp": "1447691117", "user": "Christa Keller", "text": "@YELLOWCLAW I really need a Blood for Mercy bomber jacket restock for a friends birthday present this month! Any chance??"}, {"user_id": "1281639409", "location": {"coordinate": {"lat": 42.0027181, "lng": -72.5441445}, "name": "Enfield, CT"}, "timestamp": "1447692799", "user": "Susan c Taylor", "text": "@Chris_Manno Did they ban your bomber jacket yet? The blazer looks sharp though."}, {"user_id": "2371477807", "location": {"coordinate": {"lat": 36.424687, "lng": -121.3263187}, "name": "Soledad, CA"}, "timestamp": "1447693639", "user": "Isabel Suarez", "text": "I'm in need of a bomber jacket"}, {"user_id": "465932724", "location": {"coordinate": {"lat": 32.1656221, "lng": -82.9000751}, "name": "Georgia, USA"}, "timestamp": "1447694241", "user": "west", "text": "psa: if you're looking to buy a bomber jacket just go to zara"}, {"user_id": "857196542", "location": {"coordinate": {"lat": 39.8912248, "lng": -74.9218324}, "name": "Marlton, NJ"}, "timestamp": "1447694582", "user": "Alicia DiMichele", "text": "Monday Style Ahhhhh! I'm obsessed with this Velour Bomber jacket with a hoodie Comes in Snow\u2026 https://instagram.com/p/-J2g4pvyuP/\u00a0"}, {"user_id": "224679848", "location": {"coordinate": {"lat": 50.3754565, "lng": -4.1426565}, "name": "Plymouth, England"}, "timestamp": "1447697209", "user": "Azara Floyd", "text": "When you get yourself a great bright coral and bright blue bomber jacket from the vintage stall in college.. bitches be stylinn #80sbitches"}, {"user_id": "2557975014", "location": {"coordinate": {"lat": 38.24935809999999, "lng": -122.0399663}, "name": "Fairfield, CA"}, "timestamp": "1447700737", "user": "Karl Uribe", "text": "I should get a alpha bomber jacket."}, {"user_id": "1849905157", "location": {"coordinate": {"lat": 42.6334247, "lng": -71.31617179999999}, "name": "Lowell, MA"}, "timestamp": "1447711364", "user": "Papi S", "text": "bomber jacket or hilfiger?"}, {"user_id": "1189168891", "location": {"coordinate": {"lat": 52.3555177, "lng": -1.1743197}, "name": "South West, England"}, "timestamp": "1447716032", "user": "Sarah ????", "text": "I've just seen a Chanel bomber jacket that I'm going to buy when I'm rich and famous"}, {"user_id": "2990226314", "location": {"coordinate": {"lat": 26.5628537, "lng": -81.9495331}, "name": "Cape Coral, FL"}, "timestamp": "1447718803", "user": "Shawn & Family", "text": "A horrible episode but the beginning of the greatest generation my hat is off to you Jules His bomber jacket bronzed pic.twitter.com/02MKpFsrV0"}, {"user_id": "163414733", "location": {"coordinate": {"lat": 34.7108955, "lng": 137.7259397}, "name": "Hamamatsu City Naka Ward, Shizuoka"}, "timestamp": "1447720488", "user": "???????? ???", "text": "Oliver Spencer\n(????)\nBERMONDSY BOMBER JACKET\n(??)\n56,000+?\n(???)\nCHARCOAL GREY\n(???)\n??\u2026 https://instagram.com/p/-KgJSQPLMd/\u00a0"}, {"user_id": "262467129", "location": {"coordinate": {"lat": 41.5931049, "lng": -81.5267873}, "name": "Euclid, OH"}, "timestamp": "1447723631", "user": "?", "text": "Salty my other bomber jacket came after I bought a whole new one "}, {"user_id": "917775342", "location": {"coordinate": {"lat": 40.7830603, "lng": -73.9712488}, "name": "Manhattan, NY"}, "timestamp": "1447733420", "user": "brittany jade.", "text": "Girl you tha bomb diggity. It's all about the bomber jacket today on the\u2026 https://instagram.com/p/-LAmGFHjR5G94iQl040UWJW7hI8VfNi8rRByE0/\u00a0\u2026"}, {"user_id": "617289743", "location": {"coordinate": {"lat": 32.912624, "lng": -96.63888329999999}, "name": "Garland, TX"}, "timestamp": "1447735623", "user": "??", "text": "@brubru_vilg yeah bruh , that bomber jacket clean tho "}, {"user_id": "324481619", "location": {"coordinate": {"lat": -7.2574719, "lng": 112.7520883}, "name": "Kota Surabaya, Jawa Timur"}, "timestamp": "1447764114", "user": "FRIDAY KILLER Store", "text": "HOXIE BLK Bomber Jacket from @FridayKillerCo  IDR.295.000 for online order 08175234384pic.twitter.com/GdLGnSOC0g"}, {"user_id": "324481619", "location": {"coordinate": {"lat": -7.2574719, "lng": 112.7520883}, "name": "Kota Surabaya, Jawa Timur"}, "timestamp": "1447764138", "user": "FRIDAY KILLER Store", "text": "HOXIE NVY Bomber Jacket from @FridayKillerCo  IDR.295.000 for online order 08175234384pic.twitter.com/PGfxjaywHI"}, {"user_id": "322695841", "location": {"coordinate": {"lat": 36.1626638, "lng": -86.7816016}, "name": "Nashville, TN"}, "timestamp": "1447774989", "user": "princess", "text": "I want every color in the bomber jacket"}, {"user_id": "266231608", "location": {"coordinate": {"lat": 56.462018, "lng": -2.970721}, "name": "Dundee, Scotland"}, "timestamp": "1447778521", "user": "Michael Binnie", "text": "@00Samson the kind of people who would wear a Castrol GTX Bomber Jacket to a funeral."}, {"user_id": "37493482", "location": {"coordinate": {"lat": 39.0795529, "lng": -77.07303379999999}, "name": "Aspen Hill, MD"}, "timestamp": "1447788982", "user": "Putri C. Surya", "text": "my brother bought me the bomber jacket I wanted for my bday "}, {"user_id": "1188413478", "location": {"coordinate": {"lat": 39.9525839, "lng": -75.1652215}, "name": "Philadelphia, PA"}, "timestamp": "1447791926", "user": "Share Designs", "text": "Gap Dark grey Down bomber jacket \nSize med/large $20\n#gapjacket #warmcoat #down #cute @ Share Designs https://instagram.com/p/-MwL-tCS_v/\u00a0"}, {"user_id": "2516082149", "location": {"coordinate": {"lat": 39.9525839, "lng": -75.1652215}, "name": "Philadelphia, PA"}, "timestamp": "1447799884", "user": "she call me sexychoc", "text": "I swear everybody with a bomber jacket think they know how to dress"}, {"user_id": "2295157777", "location": {"coordinate": {"lat": 42.65836609999999, "lng": -83.1499322}, "name": "Rochester Hills, MI"}, "timestamp": "1447801975", "user": "G", "text": "Someone buy me a Heider Ackermann bomber jacket "}, {"user_id": "18220951", "location": {"coordinate": {"lat": 33.4483771, "lng": -112.0740373}, "name": "Phoenix, AZ"}, "timestamp": "1447803870", "user": "PoorLittleRichGirl", "text": "Studio M vegan leather bomber jacket XS $24\n#bomberjacket #veganleather #motojacket #fall #chic\u2026 https://instagram.com/p/-NG-C8n9Wy/\u00a0"}, {"user_id": "556072112", "location": {"coordinate": {"lat": 40.6642699, "lng": -73.70846449999999}, "name": "Valley Stream, NY"}, "timestamp": "1447804374", "user": "High Volume", "text": "#TeamEarly #New #CyberGreen Satin #bomber #jacket x @highvolumeshop #Entourage #snapbacks x #HVLM x\u2026 https://instagram.com/p/-NH7elxgY_/\u00a0"}, {"user_id": "497154839", "location": {"coordinate": {"lat": 30.147146, "lng": -91.9612305}, "name": "Broussard, LA"}, "timestamp": "1447810642", "user": "Queen K", "text": "really want a bomber jacket"}, {"user_id": "2934202663", "location": {"coordinate": {"lat": 33.9830688, "lng": -118.096735}, "name": "Pico Rivera, CA"}, "timestamp": "1447811234", "user": "M0 M0NEY", "text": "so my friend told me about this \"bomber\" jacket? I've seen them before but i didn't knw that was the name for them, & tbh i rlly like it"}, {"user_id": "1067076559", "location": {"coordinate": {"lat": 41.1339449, "lng": -81.48455849999999}, "name": "Cuyahoga Falls, OH"}, "timestamp": "1447811891", "user": "kota", "text": "In need of an olive bomber jacket"}, {"user_id": "1250650309", "location": {"coordinate": {"lat": 29.7604267, "lng": -95.3698028}, "name": "Houston, TX"}, "timestamp": "1447817333", "user": "luhz", "text": "if someone could get me the OVO velvet bomber jacket that'd be great"}, {"user_id": "72490584", "location": {"coordinate": {"lat": 35.6617773, "lng": 139.7040506}, "name": "Shibuya-ku, Tokyo"}, "timestamp": "1447825612", "user": "CANDY / FAKE TOKYO", "text": "ASSK \"TURBO LONG BOMBER JACKET W PRINT/MULTI\" \u00a563,000+tax\n#assk_paris #assk #faketokyo #candytokyo @\u2026 https://instagram.com/p/-NwbwZPE5Y/\u00a0"}, {"user_id": "2752159713", "location": {"coordinate": {"lat": 33.5539143, "lng": -117.2139232}, "name": "Murrieta, CA"}, "timestamp": "1447826010", "user": "3", "text": "I need to get on the bomber jacket train "}, {"user_id": "2268561930", "location": {"coordinate": {"lat": 37.7652065, "lng": -122.2416355}, "name": "Alameda, CA"}, "timestamp": "1447830875", "user": "lil ling?", "text": "- Yeuh definitely not cashing out on that one , my bomber jacket is worth that "}, {"user_id": "881953261", "location": {"coordinate": {"lat": 3.139003, "lng": 101.686855}, "name": "Kuala Lumpur City, Kuala Lumpur Federal Territory"}, "timestamp": "1447835071", "user": "ching yi", "text": "Bomber jacket for life  @ Raffles College of Higher Education Kuala Lumpur https://instagram.com/p/-OCezastr-/\u00a0"}, {"user_id": "3043668738", "location": {"coordinate": {"lat": 27.6648274, "lng": -81.5157535}, "name": "Florida, USA"}, "timestamp": "1447849419", "user": "Mason Alexander", "text": "$40 For This Fire Ass Bomber Jacket Is Such A Steal"}, {"user_id": "328502265", "location": {"coordinate": {"lat": 33.8651033, "lng": -84.3365917}, "name": "Brookhaven, GA"}, "timestamp": "1447858390", "user": "?", "text": "I'll never wear a plain bomber jacket."}, {"user_id": "2802603932", "location": {"coordinate": {"lat": 42.2042586, "lng": -72.6162009}, "name": "Holyoke, MA"}, "timestamp": "1447865495", "user": "Nikki Cicerchia", "text": "I NEED a bomber jacket"}, {"user_id": "453020170", "location": {"coordinate": {"lat": 55.864237, "lng": -4.251806}, "name": "Glasgow, Scotland"}, "timestamp": "1447866062", "user": "Honeyz.Com", "text": "Get The Look!!\nOrder Our 'Fur Collar Bomber Jacket' Online Now!!\nOnly \u00a332.99!!\nhttp://www.honeyz.com/shop/clothing/fur-collar-bomber/\u00a0\u2026pic.twitter.com/UYTWjyCTGv"}, {"user_id": "337851246", "location": {"coordinate": {"lat": -26.0963217, "lng": 27.8076959}, "name": "Krugersdorp, South Africa"}, "timestamp": "1447869755", "user": "LeChina", "text": "Im gonna sell my car for a yeezy season 2 bomber jacket "}, {"user_id": "443873318", "location": {"coordinate": {"lat": 42.0883603, "lng": -87.98062650000001}, "name": "Arlington Heights, IL"}, "timestamp": "1447878420", "user": "Michala Hutson", "text": "Right when my mom went to buy me the Bomber jacket for my bday it was sold out. PLEASSSSEEEEE RESTOCK  @dimepieceLA"}, {"user_id": "346071074", "location": {"coordinate": {"lat": 27.6648274, "lng": -81.5157535}, "name": "Florida, USA"}, "timestamp": "1447881776", "user": "ty dolla menu.", "text": "My bomber jacket came in the mail "}, {"user_id": "480494950", "location": {"coordinate": {"lat": 29.95106579999999, "lng": -90.0715323}, "name": "New Orleans, LA"}, "timestamp": "1447886248", "user": "Ada.", "text": "Kinda want a bomber jacket"}, {"user_id": "301454525", "location": {"coordinate": {"lat": 28.1220742, "lng": -16.7338194}, "name": "Adeje, Spain"}, "timestamp": "1447888892", "user": "Lupe Castro", "text": "6+Smart+Ways+to+Style+Your+Bomber+Jacket http://wwwear.me/QrWbNXP\u00a0 via WhoWhatWearUK"}, {"user_id": "556072112", "location": {"coordinate": {"lat": 40.6642699, "lng": -73.70846449999999}, "name": "Valley Stream, NY"}, "timestamp": "1447892685", "user": "High Volume", "text": "C/o #New @highvolumeshop #BlackFriday #Entourage #snapback x Rev\u00eas Multi bomber #jacket x #Embellish\u2026 https://instagram.com/p/-PwXlexgZ4/\u00a0"}, {"user_id": "192805836", "location": {"coordinate": {"lat": 38.5815719, "lng": -121.4943996}, "name": "Sacramento, CA"}, "timestamp": "1447894526", "user": "Fvck$cottieB", "text": "Got my bomber jacket today and it feels to puffy. Or am I just tripping who has one?"}, {"user_id": "386170829", "location": {"coordinate": {"lat": 30.5085309, "lng": -86.50272819999999}, "name": "Valparaiso, FL"}, "timestamp": "1447899535", "user": "...", "text": "Snapback, longline Henley, bomber jacket, joggers and a pair of Jordan\u2026 https://instagram.com/p/-P9b8ZQTrYiyB3HFG_Dq5siE7WwbhrQNS9EYI0/\u00a0\u2026"}, {"user_id": "1188413478", "location": {"coordinate": {"lat": 39.9525839, "lng": -75.1652215}, "name": "Philadelphia, PA"}, "timestamp": "1447904135", "user": "Share Designs", "text": "Black bomber jacket \nBrand new \nSize small/ med $25\n#greatlook #bomberjacket #warmcoat @ Share Designs https://instagram.com/p/-QGNcZiS6n/\u00a0"}, {"user_id": "74314242", "location": {"coordinate": {"lat": 34.6594444, "lng": 135.4996302}, "name": "Osaka-shi Naniwa, Osaka"}, "timestamp": "1447910969", "user": "[excube]", "text": "???????????\"ZL BY ZLISM\" bomber jacket available at excube_SHOP & E_SHOP #excubedeliveryyy @ Excube https://instagram.com/p/-QTPqyK8Bq/\u00a0"}, {"user_id": "2946779941", "location": {"coordinate": {"lat": 36.09985959999999, "lng": -80.244216}, "name": "Winston-Salem, NC"}, "timestamp": "1447913753", "user": "Lauren", "text": "I love seeing a nigga in a bomber jacket so much, idk why"}, {"user_id": "310125047", "location": {"coordinate": {"lat": 32.3668052, "lng": -86.2999689}, "name": "Montgomery, AL"}, "timestamp": "1447914356", "user": "Jaz ??", "text": "I want an olive green or a gray bomber jacket, just can't seem to find one."}, {"user_id": "324481619", "location": {"coordinate": {"lat": -7.2574719, "lng": 112.7520883}, "name": "Kota Surabaya, Jawa Timur"}, "timestamp": "1447938419", "user": "FRIDAY KILLER Store", "text": "HOXIE BLK Bomber Jacket from @FridayKillerCo  IDR.295.000 for online order 08175234384pic.twitter.com/gmUeEXCRZQ"}, {"user_id": "392796055", "location": {"coordinate": {"lat": 40.7830603, "lng": -73.9712488}, "name": "Manhattan, NY"}, "timestamp": "1447939265", "user": "Marcel Floruss", "text": "#tbt with this dope ass @acnestudios long bomber jacket  #1dapperst @ New York, New York https://instagram.com/p/-RJNsDN-rJ/\u00a0"}, {"user_id": "453020170", "location": {"coordinate": {"lat": 55.864237, "lng": -4.251806}, "name": "Glasgow, Scotland"}, "timestamp": "1447939965", "user": "Honeyz.Com", "text": "Ladies Grab Our 'Classic Bomber Jacket' Online Now!!\nOnly \u00a327.99!!\nhttp://www.honeyz.com/shop/clothing/classic-bomber-jacket/\u00a0\u2026pic.twitter.com/Hn8jSkC2j4"}, {"user_id": "453020170", "location": {"coordinate": {"lat": 55.864237, "lng": -4.251806}, "name": "Glasgow, Scotland"}, "timestamp": "1447945020", "user": "Honeyz.Com", "text": "New Jacket Never Hurt No One!\nOur 'Quilted Bomber Jacket' Is Only \u00a323.99!!\nGet Yours http://www.honeyz.com/shop/clothing/quilted-bomber-jacket/\u00a0\u2026pic.twitter.com/74aKfeuP3m"}, {"user_id": "201091897", "location": {"coordinate": {"lat": 41.8781136, "lng": -87.6297982}, "name": "Chicago, IL"}, "timestamp": "1447962067", "user": "TheProShow", "text": "I need a bomber jacket like yesterday!!!"}, {"user_id": "434677945", "location": {"coordinate": {"lat": 41.0072779, "lng": -81.52706169999999}, "name": "Portage Lakes, OH"}, "timestamp": "1447963098", "user": "J?YM?LL", "text": "@Supreme_NYC fuck your release today, My @GloGangClothing bomber jacket came in today instead! "}, {"user_id": "3127695870", "location": {"coordinate": {"lat": 34.0522342, "lng": -118.2436849}, "name": "Los Angeles, CA"}, "timestamp": "1447972210", "user": "Jasmine", "text": "I want a bomber jacket so bad "}, {"user_id": "23144687", "location": {"coordinate": {"lat": 41.8781136, "lng": -87.6297982}, "name": "Chicago, IL"}, "timestamp": "1447972335", "user": "STANDOUT STYLE", "text": "Pair the Kitana Bomber Jacket with black or bold hues? Only 2 left\u2026 https://instagram.com/p/-SISmshStt/\u00a0"}, {"user_id": "161332318", "location": {"coordinate": {"lat": 41.49932, "lng": -81.6943605}, "name": "Cleveland, OH"}, "timestamp": "1447980333", "user": "jada.", "text": "I want a bomber jacket "}, {"user_id": "857196542", "location": {"coordinate": {"lat": 39.8912248, "lng": -74.9218324}, "name": "Marlton, NJ"}, "timestamp": "1447980944", "user": "Alicia DiMichele", "text": "In LOVE with our new bomber jacket  this is our absolutely favorite olive color with the\u2026 https://instagram.com/p/-SYtfTpUqc/\u00a0"}, {"user_id": "303037884", "location": {"coordinate": {"lat": 33.7423178, "lng": -84.1593413}, "name": "Redan, GA"}, "timestamp": "1447983169", "user": "Ms.Storm", "text": "sooo want a bomber jacket ."}, {"user_id": "2851365761", "location": {"coordinate": {"lat": 35.1495343, "lng": -90.0489801}, "name": "Memphis, TN"}, "timestamp": "1447984495", "user": "kake ?????", "text": "I need a bomber jacket. "}, {"user_id": "121444327", "location": {"coordinate": {"lat": 42.48059, "lng": -83.4754913}, "name": "Novi, MI"}, "timestamp": "1447985941", "user": "Demi ??", "text": "Ugh I need a bomber jacket "}, {"user_id": "584868360", "location": {"coordinate": {"lat": 1.2926045, "lng": 103.7683724}, "name": "West Region, Singapore"}, "timestamp": "1447997151", "user": "Eryn", "text": "Where does one find a proper bomber jacket"}, {"user_id": "866631240", "location": {"coordinate": {"lat": 38.5815719, "lng": -121.4943996}, "name": "Sacramento, CA"}, "timestamp": "1448002128", "user": "Alyssa", "text": "I really want a bomber jacket  but hollister doesn't have my size"}, {"user_id": "410909116", "location": {"coordinate": {"lat": 34.0522342, "lng": -118.2436849}, "name": "Los Angeles, CA"}, "timestamp": "1448010225", "user": "Chloe Barnachea", "text": "@asdfghjkathleen oh wtf HAHA it was replying to ur bomber jacket tweet"}, {"user_id": "34965077", "location": {"coordinate": {"lat": 51.5390111, "lng": -0.1425553}, "name": "Camden Town, London"}, "timestamp": "1448022721", "user": "Diego", "text": "Inspiration for rainy days: bomber jacket @sarrjamois #collagevintage.com @ London, United Kingdom https://instagram.com/p/-ToZN5iHE_/\u00a0"}, {"user_id": "324481619", "location": {"coordinate": {"lat": -7.2574719, "lng": 112.7520883}, "name": "Kota Surabaya, Jawa Timur"}, "timestamp": "1448027515", "user": "FRIDAY KILLER Store", "text": "HOXIE BLK Bomber Jacket from @FridayKillerCo  IDR.295.000 for online order 08175234384pic.twitter.com/1hqEVDjuOU"}, {"user_id": "324481619", "location": {"coordinate": {"lat": -7.2574719, "lng": 112.7520883}, "name": "Kota Surabaya, Jawa Timur"}, "timestamp": "1448027547", "user": "FRIDAY KILLER Store", "text": "HOXIE NVY Bomber Jacket from @FridayKillerCo  IDR.295.000 for online order 08175234384pic.twitter.com/5ziubkWrsC"}, {"user_id": "886861392", "location": {"coordinate": {"lat": 14.5377516, "lng": 121.0013794}, "name": "Pasay City, National Capital Region"}, "timestamp": "1448028342", "user": "edrien", "text": "grabe ang ganda nung bape na bomber jacket hahahaha six thousand mofo"}, {"user_id": "34965077", "location": {"coordinate": {"lat": 51.5390111, "lng": -0.1425553}, "name": "Camden Town, London"}, "timestamp": "1448029725", "user": "Diego", "text": "Inspiration: bomber jacket #collagevintage.com @ London, United Kingdom https://instagram.com/p/-T1wNTiHLG/\u00a0"}, {"user_id": "2792404291", "location": {"coordinate": {"lat": 43.653226, "lng": -79.3831843}, "name": "Toronto, Ontario"}, "timestamp": "1448029818", "user": "alfa", "text": "The \"elite bomber\" jacket, does it come with the complementary Aloha Snackbar? https://twitter.com/get_rightcs/status/667711091368177664\u00a0\u2026"}, {"user_id": "579199317", "location": {"coordinate": {"lat": 50.8548464, "lng": -1.1865868}, "name": "Fareham, England"}, "timestamp": "1448030110", "user": "k", "text": "ordered a bomber jacket and it took the money out my account but didn't turn up so I ordered another one and it's turned up and it's hideous"}, {"user_id": "2922937513", "location": {"coordinate": {"lat": 1.4853682, "lng": 103.7618154}, "name": "Johore, Malaysia"}, "timestamp": "1448038734", "user": "iman", "text": "jongdae looks so good in that turtleneck, cap and bomber jacket, i love the concept"}, {"user_id": "1594945736", "location": {"coordinate": {"lat": 39.9525839, "lng": -75.1652215}, "name": "Philadelphia, PA"}, "timestamp": "1448043901", "user": "?", "text": "Need a Saint Laurent bomber jacket & pizza"}, {"user_id": "3886193952", "location": {"coordinate": {"lat": 41.7533819, "lng": -86.11083769999999}, "name": "Granger, IN"}, "timestamp": "1448045120", "user": "Be Beautiful", "text": "Hooded Bomber jacket with pockets in liquid black!  $58.50!!  Ladies, classy and comfy has arrived!\u2026 https://instagram.com/p/-UTHPyqR1B/\u00a0"}, {"user_id": "1328836172", "location": {"coordinate": {"lat": 33.8536269, "lng": -118.1339563}, "name": "Lakewood, CA"}, "timestamp": "1448052705", "user": "cian", "text": "@aintnobodycool on the way to hoop to find out my fuckin bomber jacket is here, shout out to yall man that was quick pic.twitter.com/EmcPCUoxBY"}, {"user_id": "812989789", "location": {"coordinate": {"lat": 41.4323067, "lng": -81.5102655}, "name": "Warrensville Heights, OH"}, "timestamp": "1448056041", "user": "Terrance", "text": "Need a new bomber jacket"}, {"user_id": "2652722927", "location": {"coordinate": {"lat": 51.5459269, "lng": 0.7077123}, "name": "Southend-on-Sea, East"}, "timestamp": "1448056274", "user": "Amy Wibrow X", "text": "Want a bomber jacket"}, {"user_id": "469339219", "location": {"coordinate": {"lat": 1.3614591, "lng": 103.8387689}, "name": "East Region, Singapore"}, "timestamp": "1448061629", "user": "Jigs", "text": "Where to find bomber jacket? "}, {"user_id": "2988070175", "location": {"coordinate": {"lat": 42.9658907, "lng": -78.870036}, "name": "Kenmore, NY"}, "timestamp": "1448063512", "user": "JT ????????", "text": "Tryna cop a bomber jacket and some huaraches"}, {"user_id": "860937944", "location": {"coordinate": {"lat": 47.1256761, "lng": -122.2930075}, "name": "South Hill, WA"}, "timestamp": "1448066506", "user": "Baechel", "text": "@RenzMelchor nothing nice there right now. Only dope thing I saw there was a tannish bomber jacket"}, {"user_id": "20382327", "location": {"coordinate": {"lat": 40.6781784, "lng": -73.9441579}, "name": "Brooklyn, NY"}, "timestamp": "1448077095", "user": "harris smith", "text": "i want every bomber jacket and pair of white sneakers i see"}, {"user_id": "611416780", "location": {"coordinate": {"lat": 31.9685988, "lng": -99.9018131}, "name": "Texas, USA"}, "timestamp": "1448078851", "user": "Panda Man", "text": "If you wanna get me something for Christmas get me a nasa bomber jacket and some cnn hats"}, {"user_id": "91096180", "location": {"coordinate": {"lat": 62.1491167, "lng": 6.0952961}, "name": "Mons, Norway"}, "timestamp": "1448109232", "user": "Kim KarDashaNgani", "text": "The red bomber jacket Saso's wearing in the Shandis video  I want it."}, {"user_id": "324481619", "location": {"coordinate": {"lat": -7.2574719, "lng": 112.7520883}, "name": "Kota Surabaya, Jawa Timur"}, "timestamp": "1448112147", "user": "FRIDAY KILLER Store", "text": "HOXIE BLK Bomber Jacket from @FridayKillerCo  IDR.295.000 for online order 08175234384pic.twitter.com/VnNbHxVmm3"}, {"user_id": "324481619", "location": {"coordinate": {"lat": -7.2574719, "lng": 112.7520883}, "name": "Kota Surabaya, Jawa Timur"}, "timestamp": "1448112185", "user": "FRIDAY KILLER Store", "text": "HOXIE NVY Bomber Jacket from @FridayKillerCo  IDR.295.000 for online order 08175234384pic.twitter.com/m2Y9oIA9gC"}, {"user_id": "3397646698", "location": {"coordinate": {"lat": 32.1656221, "lng": -82.9000751}, "name": "Georgia, USA"}, "timestamp": "1448117341", "user": "kaylee ????", "text": "I want my bomber jacket now :("}, {"user_id": "228418321", "location": {"coordinate": {"lat": 54.156887, "lng": -3.1782}, "name": "Dalton-in-Furness, England"}, "timestamp": "1448121633", "user": "Anthony English", "text": "I really want the elite bomber jacket"}, {"user_id": "783832488", "location": {"coordinate": {"lat": 42.33176419999999, "lng": -71.1211635}, "name": "Brookline, MA"}, "timestamp": "1448125935", "user": "mariana", "text": "I want this stussy bomber jacket so bad but it's sold out "}, {"user_id": "857196542", "location": {"coordinate": {"lat": 39.8912248, "lng": -74.9218324}, "name": "Marlton, NJ"}, "timestamp": "1448130589", "user": "Alicia DiMichele", "text": "My outfit is so bomb. I'm not even gonna try and be humble. I love the ripped jeans and bomber jacket\u2026 https://instagram.com/p/-W2IqcpUrC/\u00a0"}, {"user_id": "63403570", "location": {"coordinate": {"lat": 40.7830603, "lng": -73.9712488}, "name": "Manhattan, NY"}, "timestamp": "1448130620", "user": "AtriumNYC", "text": "#NEW: the Silk Satin Bomber Jacket from @beautiful_ful. Available in-store and online:\u2026 https://instagram.com/p/-SZb62xbOK/\u00a0"}, {"user_id": "351015648", "location": {"coordinate": {"lat": 54.95268, "lng": -1.603411}, "name": "Gateshead, England"}, "timestamp": "1448132944", "user": "Holly Laidlaw", "text": "Is it bad am wearing a bomber jacket to town?? Fucking baltic outside"}, {"user_id": "354635776", "location": {"coordinate": {"lat": 33.8491816, "lng": -118.3884078}, "name": "Redondo Beach, CA"}, "timestamp": "1448139433", "user": "gina", "text": "k i had to return my tony stark bomber jacket from hot topic bc of money bUT I GOT AN EMAIL THAT MY ORDER IS BEING SJIPPED AGAIN????"}, {"user_id": "541832042", "location": {"coordinate": {"lat": 34.0522342, "lng": -118.2436849}, "name": "Los Angeles, CA"}, "timestamp": "1448145571", "user": "m.", "text": "Everyone keeps telling me they love how my bomber jacket goes with me "}, {"user_id": "152339551", "location": {"coordinate": {"lat": 29.4241219, "lng": -98.49362819999999}, "name": "San Antonio, TX"}, "timestamp": "1448148549", "user": "B_Lav_", "text": "SA dudes been waiting all year for today. Now they can wear that huge bomber jacket no worries."}, {"user_id": "3753406218", "location": {"coordinate": {"lat": 44.9428975, "lng": -123.0350963}, "name": "Salem, OR"}, "timestamp": "1448158790", "user": "Christopher", "text": "I want a been trill bomber jacket"}, {"user_id": "365614829", "location": {"coordinate": {"lat": 36.1626638, "lng": -86.7816016}, "name": "Nashville, TN"}, "timestamp": "1448172941", "user": "Charlie", "text": "I Need To Find Me A Bomber Jacket"}, {"user_id": "1007994571", "location": {"coordinate": {"lat": 30.267153, "lng": -97.7430608}, "name": "Austin, TX"}, "timestamp": "1448173950", "user": "Tori", "text": "Where can I get a bomber jacket? Preferably not from F21 or H&M."}, {"user_id": "125064891", "location": {"coordinate": {"lat": 37.4315734, "lng": -78.6568942}, "name": "Virginia, USA"}, "timestamp": "1448177869", "user": "????", "text": "Copped this sweet ass bomber jacket"}, {"user_id": "301597216", "location": {"coordinate": {"lat": 53.4083714, "lng": -2.9915726}, "name": "Liverpool, England"}, "timestamp": "1448189727", "user": "Wasted Heroes", "text": "Just added to @ASOSMarketplace . Acid 88 cotton bomber jacket. WH Boutique: http://marketplace.asos.com/boutique/wastedheroes\u00a0\u2026 #asosmarketplacepic.twitter.com/YYL0W0AyBk"}, {"user_id": "14683718", "location": {"coordinate": {"lat": 45.5230622, "lng": -122.6764816}, "name": "Portland, OR"}, "timestamp": "1448190698", "user": "Heather Minton", "text": "\"That bomber jacket is named 'Fear of God' because God will punish anyone who pays $1100 for it.\" #boyfriend #rant #barneys"}, {"user_id": "324481619", "location": {"coordinate": {"lat": -7.2574719, "lng": 112.7520883}, "name": "Kota Surabaya, Jawa Timur"}, "timestamp": "1448198336", "user": "FRIDAY KILLER Store", "text": "HOXIE BLK Bomber Jacket from @FridayKillerCo  IDR.295.000 for online order 08175234384pic.twitter.com/P6KY4j2Zw9"}, {"user_id": "324481619", "location": {"coordinate": {"lat": -7.2574719, "lng": 112.7520883}, "name": "Kota Surabaya, Jawa Timur"}, "timestamp": "1448198597", "user": "FRIDAY KILLER Store", "text": "HOXIE NVY Bomber Jacket from @FridayKillerCo  IDR.295.000 for online order 08175234384pic.twitter.com/8dcf9GA2Zw"}, {"user_id": "3183655825", "location": {"coordinate": {"lat": 41.8781136, "lng": -87.6297982}, "name": "Chicago, IL"}, "timestamp": "1448210593", "user": "ebo????", "text": "i want a bomber jacket , in black."}, {"user_id": "221824296", "location": {"coordinate": {"lat": 51.5351832, "lng": -0.4481378}, "name": "Hillingdon, London"}, "timestamp": "1448213749", "user": "Darren B", "text": "Someone's just walked in the boozer in a #schott bomber jacket #vintage"}, {"user_id": "338912642", "location": {"coordinate": {"lat": 51.81341399999999, "lng": -1.444797}, "name": "North Leigh, England"}, "timestamp": "1448221693", "user": "Kay", "text": "@lucyninajones the faux fur bomber jacket is deeply disturbing, ditto beard & vest combo"}, {"user_id": "56059079", "location": {"coordinate": {"lat": 52.3555177, "lng": -1.1743197}, "name": "South West, England"}, "timestamp": "1448222034", "user": "Justine", "text": "@Susie_Crossland @MrsRoboPike Want to cuddle Mark in his little fluffy bomber jacket @takethat #strictly"}, {"user_id": "50130965", "location": {"coordinate": {"lat": 51.5465063, "lng": -0.1058058}, "name": "Islington, London"}, "timestamp": "1448224546", "user": "chris lee", "text": "J F K Leather Bomber jacket on #antiquesroadshow no bullet holes though"}, {"user_id": "31203766", "location": {"coordinate": {"lat": 34.0522342, "lng": -118.2436849}, "name": "Los Angeles, CA"}, "timestamp": "1448225827", "user": "Rylee Green", "text": "Lunch date on Rodeo  - Acne Studios pink silk bomber jacket $697 - Balmain Suede Lace-up boots\u2026 https://instagram.com/p/-Zrx9LI5wc/\u00a0"}, {"user_id": "41071479", "location": {"coordinate": {"lat": 33.5422475, "lng": -117.7831104}, "name": "Laguna, CA"}, "timestamp": "1448225909", "user": "jayee", "text": "High ass heels. Floral bomber jacket. High waisted jeans. And her COACH bag. Maybe shes a doctor knocker. Idk. Doin the most."}, {"user_id": "1235369377", "location": {"coordinate": {"lat": 51.5390111, "lng": -0.1425553}, "name": "Camden Town, London"}, "timestamp": "1448226258", "user": "Jodie Marie Dewberry", "text": "I'm not a fan of the cold so I've already started my #ss16 wish list and this bomber jacket is top of\u2026 https://instagram.com/p/-ZsnBjpfGS/\u00a0"}, {"user_id": "4097954247", "location": {"coordinate": {"lat": 40.9167654, "lng": -74.17181099999999}, "name": "Paterson, NJ"}, "timestamp": "1448227766", "user": "BLACK JEWEL ?", "text": "everybody got a bomber jacket , but Imma be dif and get the long one "}, {"user_id": "316670197", "location": {"coordinate": {"lat": 36.778261, "lng": -119.4179324}, "name": "California, USA"}, "timestamp": "1448251834", "user": "Jade Storms", "text": "I want a black or olive green bomber jacket. "}, {"user_id": "48866427", "location": {"coordinate": {"lat": 39.7537669, "lng": -104.9955038}, "name": "Beta Nightclub"}, "timestamp": "1448257419", "user": "Sean Chapin", "text": "I just wrote a review on the Dope - Concentric Bomber Jacket https://yotpo.com/go/3aS0xX4C\u00a0 via yotpo"}, {"user_id": "630176748", "location": {"coordinate": {"lat": 45.5230622, "lng": -122.6764816}, "name": "Portland, OR"}, "timestamp": "1448259700", "user": "hoopz", "text": "I want a pink bomber jacket"}, {"user_id": "112619821", "location": {"coordinate": {"lat": 33.4483771, "lng": -112.0740373}, "name": "Phoenix, AZ"}, "timestamp": "1448268265", "user": "????yung cactus????", "text": "Wishlist? The owsla bomber jacket ):"}, {"user_id": "1242752821", "location": {"coordinate": {"lat": 43.2097837, "lng": -77.6930602}, "name": "Greece, NY"}, "timestamp": "1448284808", "user": "K$upreme", "text": "I need a black bomber jacket"}, {"user_id": "1446328976", "location": {"coordinate": {"lat": 50.8513682, "lng": 5.6909725}, "name": "Maastricht, The Netherlands"}, "timestamp": "1448294956", "user": "Chapeau Magazine", "text": "\u2018BOMBER-JACKET-OF-FAME\u2019. Lees de nieuwe modeblog van Elise Crutzen :http://bit.ly/1lET4HT\u00a0pic.twitter.com/NoCFifkc4J"}, {"user_id": "156745790", "location": {"coordinate": {"lat": 41.4644979, "lng": -81.5087322}, "name": "Beachwood, OH"}, "timestamp": "1448303403", "user": "Na ????", "text": "Where can I find a black bomber jacket "}, {"user_id": "2981271489", "location": {"coordinate": {"lat": 50.81806760000001, "lng": -1.3726131}, "name": "Blackfield, England"}, "timestamp": "1448303819", "user": "cait", "text": "@megnxwman *they're & so you telling Twitter you really want a bomber jacket has so much point to it yeah"}, {"user_id": "2220657204", "location": {"coordinate": {"lat": 30.4582829, "lng": -91.1403196}, "name": "Baton Rouge, LA"}, "timestamp": "1448305254", "user": "o?bleice?", "text": "Hover board or glo gang bomber jacket "}, {"user_id": "465824641", "location": {"coordinate": {"lat": 42.4169651, "lng": -88.0739708}, "name": "Lake Villa, IL"}, "timestamp": "1448309364", "user": "Asian Zing", "text": "Should I get a bomber jacket?"}, {"user_id": "253516576", "location": {"coordinate": {"lat": 27.6648274, "lng": -81.5157535}, "name": "Florida, USA"}, "timestamp": "1448310875", "user": "? maybz ?", "text": "Rather be cold than wear the ugly wannabe bomber jacket that I'm supposed to wear "}, {"user_id": "220556801", "location": {"coordinate": {"lat": 38.9078897, "lng": -76.8296933}, "name": "Lake Arbor, MD"}, "timestamp": "1448311768", "user": "papi", "text": "Need a Jackson 5 bomber jacket"}, {"user_id": "29084595", "location": {"coordinate": {"lat": 29.95106579999999, "lng": -90.0715323}, "name": "New Orleans, LA"}, "timestamp": "1448313031", "user": "GORDO", "text": "I want a olive green bomber jacket."}, {"user_id": "2752956753", "location": {"coordinate": {"lat": 40.6781784, "lng": -73.9441579}, "name": "Brooklyn, NY"}, "timestamp": "1448315120", "user": "CAM", "text": "I need a bomber jacket"}, {"user_id": "2358263322", "location": {"coordinate": {"lat": 26.1595194, "lng": -97.9908366}, "name": "Weslaco, TX"}, "timestamp": "1448315339", "user": "\u00dfG", "text": "Really want that bomber jacket from 21men"}, {"user_id": "187989942", "location": {"coordinate": {"lat": 32.7766642, "lng": -96.79698789999999}, "name": "Dallas, TX"}, "timestamp": "1448320190", "user": "Ted Butler", "text": "Where can I get a black bomber jacket"}, {"user_id": "1267574684", "location": {"coordinate": {"lat": 51.5465063, "lng": -0.1058058}, "name": "Islington, London"}, "timestamp": "1448323670", "user": "????", "text": "Bmt I need a BOMBER jacket rn"}, {"user_id": "521761797", "location": {"coordinate": {"lat": 32.7229096, "lng": -96.9819507}, "name": "Lakeland Heights, TX"}, "timestamp": "1448324091", "user": "Marie Shelton", "text": "Saw Obama coming off AF1 with I swear his bomber jacket on.  He thinks he is playing war again instead of being kicked around like a dog."}, {"user_id": "187989942", "location": {"coordinate": {"lat": 32.5896998, "lng": -96.8570738}, "name": "Desoto, TX"}, "timestamp": "1448330475", "user": "Ted Butler", "text": "@BlubieMilez dr.Kt where do I find a bomber jacket?"}, {"user_id": "1835582624", "location": {"coordinate": {"lat": 36.1699412, "lng": -115.1398296}, "name": "Las Vegas, NV"}, "timestamp": "1448334135", "user": "???????", "text": "It's this bomber jacket @ Pac Sun and I might have to fuck wit it "}, {"user_id": "1835582624", "location": {"coordinate": {"lat": 36.1699412, "lng": -115.1398296}, "name": "Las Vegas, NV"}, "timestamp": "1448334203", "user": "???????", "text": "Bomber Jacket\nExtended T-Shirt\nBiker Jeans \nTimberlands \n"}, {"user_id": "334760461", "location": {"coordinate": {"lat": 33.6411316, "lng": -117.9186689}, "name": "Costa Mesa, CA"}, "timestamp": "1448334835", "user": "Jenn BB8 ????", "text": "Got my @HerUniverse BB8 bomber jacket today. I sized up to the XL and I am glad that I did any smaller would be too tight in the shoulders."}, {"user_id": "296617784", "location": {"coordinate": {"lat": 38.5815719, "lng": -121.4943996}, "name": "Sacramento, CA"},